[{"station_id":"USR0000CJOH","station_name":"JOHNSONDALE_CALIFORNIA","latitude":35.9717,"longitude":-118.545,"elevation_m":1432.6},{"station_id":"USC00244084","station_name":"HERON_2_NW","latitude":48.08,"longitude":-116.0014,"elevation_m":682.8},{"station_id":"CHM00057662","station_name":"CHANGDE","latitude":29.05,"longitude":111.683,"elevation_m":35.0},{"station_id":"USC00472556","station_name":"ELLSWORTH_1_E","latitude":44.7303,"longitude":-92.4586,"elevation_m":313.9},{"station_id":"USC00205065","station_name":"MANISTEE_3SE","latitude":44.2114,"longitude":-86.2939,"elevation_m":204.2},{"station_id":"USW00063862","station_name":"VALLEY_HEAD_1_SSW","latitude":34.5653,"longitude":-85.6172,"elevation_m":310.9},{"station_id":"SWE00139044","station_name":"VASTERAS","latitude":59.62,"longitude":16.55,"elevation_m":10.0},{"station_id":"CA001125223","station_name":"MT_KOBAU_OBSERVATORY","latitude":49.1167,"longitude":-119.6833,"elevation_m":1862.0},{"station_id":"KZ000038198","station_name":"TURKESTAN","latitude":43.27,"longitude":68.22,"elevation_m":206.0},{"station_id":"NON00015060","station_name":"LOM","latitude":61.8373,"longitude":8.57,"elevation_m":382.0},{"station_id":"CA00702FHL8","station_name":"STE_ANNE_DE_BELLEVUE_1","latitude":45.4333,"longitude":-73.9333,"elevation_m":39.0},{"station_id":"CA006131386","station_name":"CHATHAM","latitude":42.4,"longitude":-82.2,"elevation_m":183.0},{"station_id":"FR000007650","station_name":"MARIGNANE_AEROPORT_MARSEILLE_M","latitude":43.4417,"longitude":5.2267,"elevation_m":5.0},{"station_id":"USC00468282","station_name":"SMITHFIELD","latitude":39.5333,"longitude":-80.6333,"elevation_m":259.1},{"station_id":"USC00114710","station_name":"KEWANEE_1_E","latitude":41.2428,"longitude":-89.8997,"elevation_m":237.7},{"station_id":"USR0000OFIE","station_name":"FIELDS_OREGON","latitude":43.6806,"longitude":-122.3019,"elevation_m":1028.1},{"station_id":"USC00053005","station_name":"FT_COLLINS","latitude":40.5764,"longitude":-105.0858,"elevation_m":1525.2},{"station_id":"TZXLT823542","station_name":"MOSHI","latitude":-3.35,"longitude":37.333,"elevation_m":831.5},{"station_id":"USC00413133","station_name":"FERRIS","latitude":32.5339,"longitude":-96.6608,"elevation_m":143.3},{"station_id":"CA006156682","station_name":"PORT_PERRY_NONQUON","latitude":44.15,"longitude":-78.9667,"elevation_m":253.0},{"station_id":"CA006137361","station_name":"ST_THOMAS","latitude":42.7833,"longitude":-81.1667,"elevation_m":236.0},{"station_id":"CA001153034","station_name":"FT_STEELE_DANDY_CRK","latitude":49.5167,"longitude":-115.4667,"elevation_m":856.0},{"station_id":"TUXLT253306","station_name":"BOGAZLIYAN","latitude":39.2,"longitude":35.3,"elevation_m":1017.0},{"station_id":"USC00235307","station_name":"MARSHFIELD","latitude":37.3339,"longitude":-92.9097,"elevation_m":454.2},{"station_id":"CA001097646","station_name":"SPOKIN_LAKE_4E","latitude":52.1833,"longitude":-121.6833,"elevation_m":1040.0},{"station_id":"USC00020300","station_name":"APACHE_6_WNW","latitude":31.7167,"longitude":-109.2333,"elevation_m":1641.0},{"station_id":"CHXLT112934","station_name":"HUADIAN","latitude":42.98,"longitude":126.75,"elevation_m":264.0},{"station_id":"USC00051816","station_name":"CONEJOS_3_NNW","latitude":37.1333,"longitude":-106.0333,"elevation_m":2410.1},{"station_id":"USW00024251","station_name":"NORTH_BEND_NAAF","latitude":43.4167,"longitude":-124.2333,"elevation_m":15.8},{"station_id":"USW00012883","station_name":"LAKELAND","latitude":28.0206,"longitude":-81.9219,"elevation_m":44.2},{"station_id":"USC00298086","station_name":"SANTA_FE_FIELD_STATION","latitude":35.6833,"longitude":-105.9333,"elevation_m":2133.6},{"station_id":"MLM00061230","station_name":"NIORO_DU_SAHEL","latitude":15.233,"longitude":-9.35,"elevation_m":237.0},{"station_id":"CA006118187","station_name":"SUTTON_WEST","latitude":44.3167,"longitude":-79.3,"elevation_m":137.0},{"station_id":"USS0021B55S","station_name":"OLALLIE_MEADOWS","latitude":47.3667,"longitude":-121.4333,"elevation_m":1127.8},{"station_id":"USR0000IBEA","station_name":"BEARSKIN_CREEK_IDAHO","latitude":44.385,"longitude":-115.55,"elevation_m":2042.2},{"station_id":"USC00203561","station_name":"HANOVER","latitude":42.15,"longitude":-84.2167,"elevation_m":344.4},{"station_id":"CA007030462","station_name":"BARRAGE_MITCHINAMECUS","latitude":47.2167,"longitude":-75.1667,"elevation_m":390.0},{"station_id":"CA002300MKF","station_name":"ARVIAT_A","latitude":61.1,"longitude":-94.0667,"elevation_m":10.0},{"station_id":"MZ000067295","station_name":"CHIMOIO","latitude":-19.117,"longitude":33.467,"elevation_m":732.0},{"station_id":"USR0000TGUA","station_name":"GUADELUPE_PEAK_TEXAS","latitude":31.925,"longitude":-104.8253,"elevation_m":2363.7},{"station_id":"USR0000MWEG","station_name":"WEST_GLACIER_MONTANA","latitude":48.5106,"longitude":-113.9942,"elevation_m":975.4},{"station_id":"ASN00023343","station_name":"ROSEDALE_TURRETFIELD_RESEARCH","latitude":-34.5519,"longitude":138.8342,"elevation_m":116.0},{"station_id":"USC00116970","station_name":"PRAIRIE_CITY_2S","latitude":40.5914,"longitude":-90.4642,"elevation_m":198.1},{"station_id":"CHXLT721855","station_name":"NARAN_BULAG","latitude":44.62,"longitude":114.15,"elevation_m":1183.0},{"station_id":"USC00081310","station_name":"CAPTIVA","latitude":26.5333,"longitude":-82.1833,"elevation_m":null},{"station_id":"CA008202502","station_name":"INGONISH_BEACH_RCS","latitude":46.6667,"longitude":-60.4,"elevation_m":10.0},{"station_id":"USR0000AMTL","station_name":"MOUNT_LOGAN_ARIZONA","latitude":36.3472,"longitude":-113.1989,"elevation_m":2194.6},{"station_id":"IN023480200","station_name":"ROORKEE","latitude":29.85,"longitude":77.883,"elevation_m":274.0},{"station_id":"RS000020294","station_name":"GEYBERGA_ISLAND","latitude":77.617,"longitude":101.483,"elevation_m":6.0},{"station_id":"RP000098755","station_name":"HINATUAN","latitude":8.367,"longitude":126.333,"elevation_m":3.0},{"station_id":"RP000098232","station_name":"APARRI","latitude":18.367,"longitude":121.633,"elevation_m":3.0},{"station_id":"USC00232031","station_name":"CRYSTAL_CITY","latitude":38.2333,"longitude":-90.3833,"elevation_m":128.0},{"station_id":"LGXLT134990","station_name":"IDWEN","latitude":57.9,"longitude":25.2,"elevation_m":60.0},{"station_id":"TUXLT222816","station_name":"DINAR","latitude":38.1,"longitude":30.2,"elevation_m":860.0},{"station_id":"USC00057050","station_name":"RIO_GRANDE_RSVR","latitude":37.7219,"longitude":-107.2667,"elevation_m":2893.2},{"station_id":"USR0000IKRI","station_name":"KRILEY_CREEK_IDAHO","latitude":45.3556,"longitude":-113.8933,"elevation_m":1585.0},{"station_id":"EGM00062476","station_name":"SHALATIN","latitude":23.133,"longitude":35.583,"elevation_m":21.0},{"station_id":"USC00416794","station_name":"PARIS","latitude":33.6744,"longitude":-95.5586,"elevation_m":165.2},{"station_id":"USW00004845","station_name":"KENOSHA_RGNL_AP","latitude":42.595,"longitude":-87.9381,"elevation_m":226.5},{"station_id":"USC00248392","station_name":"TROY_1","latitude":48.3833,"longitude":-115.8667,"elevation_m":609.6},{"station_id":"CA001154203","station_name":"KIMBERLEY_PCC","latitude":49.6333,"longitude":-115.9667,"elevation_m":889.0},{"station_id":"CA002403490","station_name":"REPULSE_BAY_A","latitude":66.5167,"longitude":-86.2167,"elevation_m":23.0},{"station_id":"GME00004727","station_name":"WALDEMS_REINBORN","latitude":50.2608,"longitude":8.3608,"elevation_m":380.0},{"station_id":"USC00207812","station_name":"STAMBAUGH_2SSE","latitude":46.0556,"longitude":-88.6275,"elevation_m":442.0},{"station_id":"CHM00059981","station_name":"XISHA_DAO","latitude":16.833,"longitude":112.333,"elevation_m":5.0},{"station_id":"CA006012198","station_name":"EAR_FALLS","latitude":50.6333,"longitude":-93.2167,"elevation_m":361.0},{"station_id":"USC00309047","station_name":"WAVERLY","latitude":42.0019,"longitude":-76.525,"elevation_m":257.6},{"station_id":"ARXLT893853","station_name":"PATAGONES_ARGENTINA","latitude":-46.8,"longitude":-69.5,"elevation_m":null},{"station_id":"CA00704F0PN","station_name":"POINTE_DES_MONTS","latitude":49.3167,"longitude":-67.3833,"elevation_m":6.0},{"station_id":"PMM00078792","station_name":"TOCUMEN","latitude":9.05,"longitude":-79.37,"elevation_m":14.0},{"station_id":"USW00023906","station_name":"PORT_ARANSAS_32_NNE","latitude":28.3044,"longitude":-96.8231,"elevation_m":4.6},{"station_id":"CA003031524","station_name":"CHESTERMERE_LAKE_SOUTH","latitude":51.0333,"longitude":-113.7833,"elevation_m":1021.0},{"station_id":"JAXLT804990","station_name":"OKINOERABU","latitude":27.259,"longitude":128.423,"elevation_m":null},{"station_id":"RSM00022695","station_name":"KOSLAN","latitude":63.45,"longitude":48.9,"elevation_m":158.0},{"station_id":"USR0000GTOC","station_name":"TOCCOA_1_GEORGIA","latitude":34.765,"longitude":-84.0744,"elevation_m":736.1},{"station_id":"GMW00034068","station_name":"COLEMAN","latitude":49.5667,"longitude":8.4667,"elevation_m":96.0},{"station_id":"SWE00139028","station_name":"VASTERAS_HASSLO","latitude":59.59,"longitude":16.63,"elevation_m":10.0},{"station_id":"USC00410345","station_name":"ARMSTRONG_4SE","latitude":26.8339,"longitude":-97.7078,"elevation_m":7.6},{"station_id":"FIE00146462","station_name":"KITTILA_LEVITUNTURI","latitude":67.7842,"longitude":24.8569,"elevation_m":524.0},{"station_id":"HUXLT161178","station_name":"DEBRECENHUNGARY","latitude":47.6,"longitude":21.6,"elevation_m":128.0},{"station_id":"IN012190100","station_name":"POONA","latitude":18.533,"longitude":73.85,"elevation_m":559.0},{"station_id":"UKM00003017","station_name":"KIRKWALL","latitude":58.958,"longitude":-2.905,"elevation_m":15.5},{"station_id":"ZIXLT443557","station_name":"GRAND_REEF","latitude":-18.98,"longitude":32.45,"elevation_m":1018.0},{"station_id":"CA008300516","station_name":"NORTH_CAPE","latitude":47.05,"longitude":-64.0,"elevation_m":8.0},{"station_id":"USS0021E07S","station_name":"MCKENZIE","latitude":44.2,"longitude":-121.8667,"elevation_m":1463.0},{"station_id":"USC00046458","station_name":"ONTARIO","latitude":34.0667,"longitude":-117.65,"elevation_m":299.0},{"station_id":"USC00362190","station_name":"DONORA_1_SW","latitude":40.1636,"longitude":-79.8694,"elevation_m":232.3},{"station_id":"ASN00031011","station_name":"CAIRNS_AERO","latitude":-16.8736,"longitude":145.7458,"elevation_m":2.2},{"station_id":"CA003074182","station_name":"MANNING","latitude":56.95,"longitude":-117.65,"elevation_m":491.0},{"station_id":"CA001095820","station_name":"150_MILE_HOUSE","latitude":52.1167,"longitude":-121.9333,"elevation_m":738.0},{"station_id":"USR0000NCOI","station_name":"COILS_CREEK_NEVADA","latitude":39.8333,"longitude":-116.4917,"elevation_m":2072.6},{"station_id":"USW00025624","station_name":"COLD_BAY_AP","latitude":55.2208,"longitude":-162.7325,"elevation_m":23.8},{"station_id":"USC00164734","station_name":"JONESVILLE_4_N","latitude":31.6833,"longitude":-91.8333,"elevation_m":21.0},{"station_id":"ASXLT209646","station_name":"HOBARTTASMANWAS_949700","latitude":-42.9,"longitude":147.5,"elevation_m":54.0},{"station_id":"USC00359461","station_name":"WINCHESTER","latitude":43.2828,"longitude":-123.3536,"elevation_m":140.2},{"station_id":"USC00203930","station_name":"HOUGHTON_LAKE_2NW","latitude":44.3122,"longitude":-84.7747,"elevation_m":353.9},{"station_id":"CIXLT291198","station_name":"ISLA_SANTA_M","latitude":-36.98,"longitude":-73.53,"elevation_m":79.0},{"station_id":"USR0000CCHN","station_name":"CHAPIN_COLORADO","latitude":37.1994,"longitude":-108.4892,"elevation_m":1885.8},{"station_id":"CA003024962","station_name":"OYEN_CARA","latitude":51.35,"longitude":-110.4667,"elevation_m":770.0},{"station_id":"RSM00034357","station_name":"SERAFIMOVIC","latitude":49.567,"longitude":42.75,"elevation_m":200.0},{"station_id":"USC00368249","station_name":"SOMERSET_MAIN_STREET","latitude":40.0167,"longitude":-79.0833,"elevation_m":655.9},{"station_id":"USC00462095","station_name":"CUBA","latitude":38.9667,"longitude":-81.6667,"elevation_m":198.1},{"station_id":"USC00358481","station_name":"TIDEWATER","latitude":44.4122,"longitude":-123.9022,"elevation_m":15.2},{"station_id":"ASN00063039","station_name":"KATOOMBA_MURRI_ST","latitude":-33.7122,"longitude":150.3087,"elevation_m":1015.0},{"station_id":"USW00013942","station_name":"MONROE_RGNL_AP","latitude":32.5156,"longitude":-92.0406,"elevation_m":24.1},{"station_id":"USC00469482","station_name":"WHEELING","latitude":40.0567,"longitude":-80.7283,"elevation_m":196.6},{"station_id":"ASN00010911","station_name":"LAKE_GRACE","latitude":-33.1006,"longitude":118.4647,"elevation_m":286.0},{"station_id":"SFXLT749174","station_name":"KING_WILLIAMS_TOWN","latitude":-32.87,"longitude":27.4,"elevation_m":400.0},{"station_id":"USC00112614","station_name":"EAST_ST_LOUIS_PARKS_CL","latitude":38.5667,"longitude":-90.1833,"elevation_m":125.0},{"station_id":"USC00334004","station_name":"JACKSON_3_NW","latitude":39.08,"longitude":-82.7078,"elevation_m":243.8},{"station_id":"USW00094991","station_name":"LAMONI_MUNI_AP","latitude":40.6331,"longitude":-93.9019,"elevation_m":344.7},{"station_id":"BR00E3-1520","station_name":"SAO_PAULO_CUMBICA","latitude":-23.433,"longitude":-46.467,"elevation_m":4.0},{"station_id":"ASN00039322","station_name":"RUNDLE_ISLAND","latitude":-23.5293,"longitude":151.2763,"elevation_m":19.8},{"station_id":"ITM00016045","station_name":"RIVOLTO","latitude":45.979,"longitude":13.049,"elevation_m":54.6},{"station_id":"GME00004844","station_name":"NASTATTEN","latitude":50.2,"longitude":7.8656,"elevation_m":268.0},{"station_id":"USC00476420","station_name":"PELL_LAKE","latitude":42.5319,"longitude":-88.3325,"elevation_m":256.0},{"station_id":"CA006057592","station_name":"SAULT_STE_MARIE_A","latitude":46.4833,"longitude":-84.5167,"elevation_m":192.0},{"station_id":"CA001012550","station_name":"DUNCAN","latitude":48.7833,"longitude":-123.7167,"elevation_m":9.0},{"station_id":"RSE00002266","station_name":"KALUGA","latitude":54.57,"longitude":36.3697,"elevation_m":201.0},{"station_id":"NON00080610","station_name":"MYKEN","latitude":66.7628,"longitude":12.486,"elevation_m":17.0},{"station_id":"VEM00080476","station_name":"LA_CANADA","latitude":10.517,"longitude":-71.65,"elevation_m":26.0},{"station_id":"USC00177238","station_name":"ROBBINSTON","latitude":45.0853,"longitude":-67.1203,"elevation_m":35.1},{"station_id":"USC00245177","station_name":"LONESOME_LAKE","latitude":48.25,"longitude":-110.2,"elevation_m":841.9},{"station_id":"GBM00064551","station_name":"LAMBARENE","latitude":-0.704,"longitude":10.246,"elevation_m":25.0},{"station_id":"KZ000036335","station_name":"KARKARALINSK","latitude":49.383,"longitude":75.517,"elevation_m":812.0},{"station_id":"USC00445931","station_name":"NASSAWADOX","latitude":37.4667,"longitude":-75.8667,"elevation_m":11.9},{"station_id":"USC00471605","station_name":"CITY_OF_SHEBOYGAN_WWTP","latitude":43.7186,"longitude":-87.7089,"elevation_m":185.0},{"station_id":"ASN00029004","station_name":"BURKETOWN_POST_OFFICE","latitude":-17.7425,"longitude":139.5475,"elevation_m":5.5},{"station_id":"USC00051564","station_name":"CHEYENNE_WELLS","latitude":38.8219,"longitude":-102.3508,"elevation_m":1313.7},{"station_id":"USC00169375","station_name":"VINTON","latitude":30.1922,"longitude":-93.5811,"elevation_m":3.7},{"station_id":"USC00053652","station_name":"GUFFEY_9SE","latitude":38.6867,"longitude":-105.3925,"elevation_m":2717.3},{"station_id":"USC00515177","station_name":"LAHAINA_361","latitude":20.8789,"longitude":-156.6742,"elevation_m":11.6},{"station_id":"USC00359588","station_name":"YACHATS","latitude":44.3192,"longitude":-124.1047,"elevation_m":18.6},{"station_id":"USW00023045","station_name":"RODEO_CAA_AP","latitude":31.9333,"longitude":-108.9833,"elevation_m":1254.9},{"station_id":"USC00519593","station_name":"WAIMEA_892","latitude":21.6261,"longitude":-158.0675,"elevation_m":93.6},{"station_id":"USC00354776","station_name":"LAUREL_MTN","latitude":44.9231,"longitude":-123.575,"elevation_m":1093.9},{"station_id":"USC00367103","station_name":"PORT_ALLEGANY","latitude":41.8158,"longitude":-78.2872,"elevation_m":449.6},{"station_id":"KEXLT293093","station_name":"MALINDI","latitude":-3.2167,"longitude":38.55,"elevation_m":null},{"station_id":"USC00352597","station_name":"ELGIN","latitude":45.5669,"longitude":-117.9239,"elevation_m":822.0},{"station_id":"USC00156882","station_name":"ROCHESTER_FERRY","latitude":37.2167,"longitude":-86.8936,"elevation_m":118.9},{"station_id":"UZM00038819","station_name":"DECHANABAD","latitude":38.4,"longitude":66.5,"elevation_m":841.0},{"station_id":"USC00186915","station_name":"PATUXENT_RIVER","latitude":38.3333,"longitude":-76.4167,"elevation_m":11.6},{"station_id":"CA004040600","station_name":"BIGGAR","latitude":52.0667,"longitude":-107.9833,"elevation_m":671.0},{"station_id":"ASN00098017","station_name":"KING_ISLAND_AIRPORT","latitude":-39.88,"longitude":143.8831,"elevation_m":37.0},{"station_id":"IDXLT406873","station_name":"BENGKULU_PADANGKEMIL","latitude":-3.9,"longitude":102.2,"elevation_m":16.0},{"station_id":"CA001100370","station_name":"ALOUETTE_POWER_HOUSE","latitude":49.3667,"longitude":-122.3167,"elevation_m":91.0},{"station_id":"CA006070027","station_name":"ABITIBI_CANYON","latitude":49.8833,"longitude":-81.5667,"elevation_m":204.0},{"station_id":"USR0000IDIX","station_name":"DIXON_SPRINGS_ILLINOIS","latitude":37.4361,"longitude":-88.6672,"elevation_m":164.6},{"station_id":"USW00094989","station_name":"AMES_MUNI_AP","latitude":41.9922,"longitude":-93.6217,"elevation_m":283.5},{"station_id":"SPE00120404","station_name":"PONTEVEDRA_INSTITUTO","latitude":42.4306,"longitude":-8.6494,"elevation_m":19.0},{"station_id":"RSM00027316","station_name":"KASIN","latitude":57.35,"longitude":37.583,"elevation_m":138.0},{"station_id":"USC00203628","station_name":"HARRISVILLE_2NNE","latitude":44.6819,"longitude":-83.2808,"elevation_m":178.3},{"station_id":"RSM00029956","station_name":"TASTYP","latitude":52.8,"longitude":89.917,"elevation_m":455.0},{"station_id":"RSM00031384","station_name":"GAR","latitude":52.567,"longitude":129.067,"elevation_m":246.0},{"station_id":"CA003044203","station_name":"MANYBERRIES_AGCM","latitude":49.3667,"longitude":-110.6833,"elevation_m":927.0},{"station_id":"THM00048380","station_name":"KAMPHAENG_PHET","latitude":16.4833,"longitude":99.5333,"elevation_m":80.0},{"station_id":"ASN00009053","station_name":"PEARCE_RAAF","latitude":-31.6669,"longitude":116.0189,"elevation_m":40.0},{"station_id":"SF000104560","station_name":"RIVERSDALE","latitude":-34.083,"longitude":21.25,"elevation_m":116.0},{"station_id":"ECXLT399282","station_name":"GUYAQUIL_SIMON_BOLIV","latitude":-2.2,"longitude":-79.8,"elevation_m":4.0},{"station_id":"SWE00137644","station_name":"HELSINGBORG","latitude":56.04,"longitude":12.69,"elevation_m":43.0},{"station_id":"BLM00085264","station_name":"VALLEGRANDE","latitude":-18.467,"longitude":-64.1,"elevation_m":1998.0},{"station_id":"USC00411500","station_name":"CARTHAGE","latitude":32.1614,"longitude":-94.3397,"elevation_m":93.0},{"station_id":"CA005031301","station_name":"HODGSON_2","latitude":51.1833,"longitude":-97.4667,"elevation_m":232.0},{"station_id":"CA007090120","station_name":"AMOS","latitude":48.5667,"longitude":-78.1333,"elevation_m":310.0},{"station_id":"USC00095394","station_name":"LUMPKIN_2_SE","latitude":32.0306,"longitude":-84.7753,"elevation_m":147.8},{"station_id":"USC00358726","station_name":"UKIAH","latitude":45.1328,"longitude":-118.9339,"elevation_m":1020.5},{"station_id":"USR0000ILUC","station_name":"LUCKY_PEAK_IDAHO","latitude":43.5875,"longitude":-115.9925,"elevation_m":966.2},{"station_id":"USW00094910","station_name":"WATERLOO_MUNI_AP","latitude":42.5544,"longitude":-92.4011,"elevation_m":264.6},{"station_id":"SWE00139814","station_name":"TANNAS_A","latitude":62.4503,"longitude":12.6703,"elevation_m":723.0},{"station_id":"USW00004803","station_name":"RHINELANDER_ONEIDA_AP","latitude":45.6308,"longitude":-89.4653,"elevation_m":487.4},{"station_id":"CA008205000","station_name":"SALMON_HOLE","latitude":44.9333,"longitude":-64.0333,"elevation_m":84.0},{"station_id":"USC00268346","station_name":"TUSCARORA","latitude":41.3144,"longitude":-116.2225,"elevation_m":1880.6},{"station_id":"CA004055080","station_name":"MELFORT","latitude":52.8667,"longitude":-104.6,"elevation_m":463.0},{"station_id":"USC00192642","station_name":"FALL_RIVER","latitude":41.7167,"longitude":-71.1333,"elevation_m":57.9},{"station_id":"TUXLT121449","station_name":"KEBAN","latitude":38.8,"longitude":38.8,"elevation_m":725.0},{"station_id":"ENXLT421639","station_name":"BALTISCHPORT","latitude":59.4,"longitude":24.1,"elevation_m":10.0},{"station_id":"UKM00003292","station_name":"BRIDLINGTON_MRSC","latitude":54.1,"longitude":-0.167,"elevation_m":19.0},{"station_id":"USC00164260","station_name":"HINESTON_4_NNE","latitude":31.1833,"longitude":-92.75,"elevation_m":73.2},{"station_id":"USC00423842","station_name":"HENEFER","latitude":41.0167,"longitude":-111.5,"elevation_m":1615.4},{"station_id":"CA005023370","station_name":"ZHODA","latitude":49.25,"longitude":-96.5167,"elevation_m":305.0},{"station_id":"FRE00104955","station_name":"BIARRITZ","latitude":43.46,"longitude":-1.53,"elevation_m":69.0},{"station_id":"USW00094281","station_name":"AURORA_STATE_AP","latitude":45.2486,"longitude":-122.7686,"elevation_m":59.7},{"station_id":"RSM00032447","station_name":"DOLINOVKA","latitude":55.12,"longitude":159.07,"elevation_m":101.0},{"station_id":"SWE00140390","station_name":"JORMLIEN","latitude":64.73,"longitude":13.96,"elevation_m":360.0},{"station_id":"USC00141395","station_name":"CEDAR_VALE_5SSE","latitude":37.0347,"longitude":-96.4631,"elevation_m":268.2},{"station_id":"GME00004037","station_name":"EBRACH","latitude":49.8531,"longitude":10.5003,"elevation_m":346.0},{"station_id":"USC00094648","station_name":"JASPER_1_NNW","latitude":34.4758,"longitude":-84.4461,"elevation_m":446.5},{"station_id":"ASN00082001","station_name":"BEECHWORTH_COMPOSITE","latitude":-36.3702,"longitude":146.7132,"elevation_m":580.0},{"station_id":"CHXLT097282","station_name":"DUNHUA","latitude":43.37,"longitude":128.2,"elevation_m":526.0},{"station_id":"CA003067NF0","station_name":"WILDWOOD_NEWBERY","latitude":53.5667,"longitude":-115.3167,"elevation_m":853.0},{"station_id":"USC00330251","station_name":"ASHLAND","latitude":40.8667,"longitude":-82.3,"elevation_m":320.0},{"station_id":"USC00113109","station_name":"FLORA_5_NW","latitude":38.7103,"longitude":-88.5758,"elevation_m":152.4},{"station_id":"MX000003066","station_name":"TODOS_SANTOS","latitude":23.43,"longitude":-110.22,"elevation_m":15.0},{"station_id":"CA006166418","station_name":"PETERBOROUGH_A","latitude":44.2333,"longitude":-78.3667,"elevation_m":191.0},{"station_id":"USW00012975","station_name":"HOUSTON_CLOVER_FLD","latitude":29.5189,"longitude":-95.2417,"elevation_m":13.4},{"station_id":"ASN00003003","station_name":"BROOME_AIRPORT","latitude":-17.9475,"longitude":122.2353,"elevation_m":7.4},{"station_id":"CA002203910","station_name":"TUKTOYAKTUK","latitude":69.45,"longitude":-133.0,"elevation_m":18.0},{"station_id":"USC00099291","station_name":"WEST_POINT","latitude":32.8789,"longitude":-85.1808,"elevation_m":175.3},{"station_id":"USS0006K45S","station_name":"BEAVER_CK_VILLAGE","latitude":39.6,"longitude":-106.5167,"elevation_m":2590.8},{"station_id":"ITE00001751","station_name":"CAPO_CARBONARA","latitude":39.1,"longitude":9.5167,"elevation_m":116.0},{"station_id":"USC00169804","station_name":"WINNSBORO_2_SE","latitude":32.1411,"longitude":-91.7089,"elevation_m":22.6},{"station_id":"USC00241047","station_name":"BOZEMAN_6_W_EXP_FARM","latitude":45.675,"longitude":-111.155,"elevation_m":1455.4},{"station_id":"CHXLT244165","station_name":"ZADOI","latitude":33.15,"longitude":94.72,"elevation_m":4000.0},{"station_id":"GME00004250","station_name":"HUELL","latitude":48.6028,"longitude":11.6781,"elevation_m":438.0},{"station_id":"USC00344393","station_name":"HULAH_DAM","latitude":36.9167,"longitude":-96.1,"elevation_m":226.8},{"station_id":"BRXLT702488","station_name":"RIO_D_OURO","latitude":-22.37,"longitude":-43.28,"elevation_m":127.0},{"station_id":"SAM00040357","station_name":"ARAR","latitude":30.907,"longitude":41.138,"elevation_m":552.6},{"station_id":"USC00119029","station_name":"WAUKEGAN","latitude":42.3492,"longitude":-87.8828,"elevation_m":213.4},{"station_id":"USR0000AFOU","station_name":"FOUR_SPRINGS_ARIZONA","latitude":36.7939,"longitude":-112.0422,"elevation_m":1999.5},{"station_id":"USC00331600","station_name":"CLARINGTON_LOCK_14","latitude":39.8,"longitude":-80.8333,"elevation_m":195.1},{"station_id":"USC00300085","station_name":"ALFRED","latitude":42.2497,"longitude":-77.7583,"elevation_m":520.0},{"station_id":"USC00422625","station_name":"EUREKA","latitude":39.95,"longitude":-112.1167,"elevation_m":1975.1},{"station_id":"USC00331178","station_name":"CALDWELL_6_NW","latitude":39.8167,"longitude":-81.6,"elevation_m":298.7},{"station_id":"USC00310724","station_name":"BENT_CREEK","latitude":35.5044,"longitude":-82.5967,"elevation_m":643.1},{"station_id":"MGM00044232","station_name":"HUTAG","latitude":49.383,"longitude":102.7,"elevation_m":938.0},{"station_id":"ASN00027042","station_name":"WEIPA_EASTERN_AVE","latitude":-12.6267,"longitude":141.8836,"elevation_m":20.0},{"station_id":"USC00262431","station_name":"DYER","latitude":37.615,"longitude":-118.0106,"elevation_m":1493.5},{"station_id":"USC00502770","station_name":"ELDRED_ROCK","latitude":58.9667,"longitude":-135.2167,"elevation_m":15.8},{"station_id":"ITXLT624285","station_name":"ISOLA_DI_PALM","latitude":44.03,"longitude":9.83,"elevation_m":191.0},{"station_id":"USC00291927","station_name":"CLOUDCROFT","latitude":32.9667,"longitude":-105.75,"elevation_m":2688.6},{"station_id":"USC00458520","station_name":"TONASKET_4_NNE","latitude":48.7806,"longitude":-119.4242,"elevation_m":292.6},{"station_id":"USW00003954","station_name":"OKLAHOMA_CITY_POST_AP","latitude":35.5342,"longitude":-97.6469,"elevation_m":395.3},{"station_id":"CA007097900","station_name":"SENNETERRE","latitude":48.3333,"longitude":-77.2667,"elevation_m":310.0},{"station_id":"USC00046521","station_name":"OROVILLE","latitude":39.5178,"longitude":-121.5531,"elevation_m":52.1},{"station_id":"MX000003073","station_name":"GUSTAVO_DIAZ_ORDAZ","latitude":27.72,"longitude":-113.3,"elevation_m":0.0},{"station_id":"USC00297867","station_name":"SAN_JON","latitude":35.1086,"longitude":-103.3283,"elevation_m":1289.3},{"station_id":"FRM00007140","station_name":"CHATEAUDUN","latitude":48.067,"longitude":1.383,"elevation_m":127.0},{"station_id":"USC00050898","station_name":"BRANSON","latitude":37.0167,"longitude":-103.8833,"elevation_m":1914.1},{"station_id":"CA006106090","station_name":"OTTAWA_NRC","latitude":45.45,"longitude":-75.6167,"elevation_m":98.0},{"station_id":"NON00070910","station_name":"BERG_I_SNASA_II","latitude":64.25,"longitude":12.4167,"elevation_m":127.0},{"station_id":"IDM00096253","station_name":"FATMAWATI_SOEKARNO","latitude":-3.864,"longitude":102.339,"elevation_m":15.2},{"station_id":"ASN00008297","station_name":"DALWALLINU","latitude":-30.2761,"longitude":116.6714,"elevation_m":324.5},{"station_id":"USC00210355","station_name":"AUSTIN_WWT_FAC","latitude":43.6542,"longitude":-92.9739,"elevation_m":365.5},{"station_id":"USC00210050","station_name":"AGASSIZ_REFUGE","latitude":48.3006,"longitude":-95.9817,"elevation_m":348.1},{"station_id":"USR0000MPOL","station_name":"POLEBRIDGE_MONTANA","latitude":48.7825,"longitude":-114.2803,"elevation_m":1066.8},{"station_id":"RSM00029524","station_name":"KRESCHENKA","latitude":55.85,"longitude":80.033,"elevation_m":129.0},{"station_id":"USC00227701","station_name":"RUSSELL","latitude":32.4,"longitude":-88.6,"elevation_m":118.9},{"station_id":"USC00045721","station_name":"MITCHELL_CAVERNS","latitude":34.9436,"longitude":-115.5469,"elevation_m":1325.9},{"station_id":"JA000047918","station_name":"HATERUMA","latitude":24.067,"longitude":123.8,"elevation_m":13.0},{"station_id":"ECXLT697845","station_name":"QUITO_M_SUCRE","latitude":-0.1,"longitude":-78.5,"elevation_m":2812.0},{"station_id":"USC00246218","station_name":"OLNEY","latitude":48.5497,"longitude":-114.5739,"elevation_m":964.7},{"station_id":"RSM00034740","station_name":"GIGANT","latitude":46.52,"longitude":41.35,"elevation_m":79.0},{"station_id":"CA007117823","station_name":"SCHEFFERVILLE","latitude":54.8,"longitude":-66.8,"elevation_m":521.0},{"station_id":"RPXLT311380","station_name":"TACLOBAN","latitude":11.3,"longitude":125.0,"elevation_m":21.0},{"station_id":"USC00424467","station_name":"KAMAS","latitude":40.6439,"longitude":-111.2822,"elevation_m":1975.4},{"station_id":"USW00014607","station_name":"CARIBOU_MUNI_AP","latitude":46.8706,"longitude":-68.0172,"elevation_m":190.2},{"station_id":"BR002752004","station_name":"CHAPECO","latitude":-27.117,"longitude":-52.617,"elevation_m":679.0},{"station_id":"GME00004195","station_name":"HASELDORF","latitude":53.6356,"longitude":9.605,"elevation_m":3.0},{"station_id":"RSM00030978","station_name":"KAJLASTUJ","latitude":49.833,"longitude":118.383,"elevation_m":550.0},{"station_id":"RSM00026378","station_name":"HOLM","latitude":57.15,"longitude":31.183,"elevation_m":71.0},{"station_id":"SF000414170","station_name":"MALMESBURY","latitude":-33.467,"longitude":18.717,"elevation_m":102.0},{"station_id":"USC00122309","station_name":"DUBOIS_S_IN_FORAGE_FM","latitude":38.4558,"longitude":-86.6983,"elevation_m":210.3},{"station_id":"ASN00009754","station_name":"METTLER","latitude":-34.5961,"longitude":118.5519,"elevation_m":120.0},{"station_id":"USC00205381","station_name":"MENOMINEE","latitude":45.1167,"longitude":-87.6,"elevation_m":177.1},{"station_id":"NON00031970","station_name":"GAUSTATOPPEN","latitude":59.8507,"longitude":8.6554,"elevation_m":1828.0},{"station_id":"USC00052557","station_name":"EDGEWATER","latitude":39.75,"longitude":-105.0833,"elevation_m":1661.2},{"station_id":"PKXLT792700","station_name":"BAHAWALNAGAR","latitude":29.95,"longitude":73.25,"elevation_m":163.0},{"station_id":"GMM00010982","station_name":"CHIEMING_AUT","latitude":47.883,"longitude":12.533,"elevation_m":549.0},{"station_id":"EZM00011520","station_name":"PRAHA_LIBUS","latitude":50.0,"longitude":14.45,"elevation_m":303.7},{"station_id":"USC00265890","station_name":"PAHRUMP","latitude":36.2614,"longitude":-116.0561,"elevation_m":784.3},{"station_id":"USR0000INUC","station_name":"NUCKOLS_IDAHO","latitude":47.5083,"longitude":-115.9461,"elevation_m":1268.0},{"station_id":"USR0000ASTH","station_name":"STRAY_HORSE_ARIZONA","latitude":33.5406,"longitude":-109.3169,"elevation_m":2139.7},{"station_id":"USC00079600","station_name":"WILMINGTON_CITY_HALL","latitude":39.75,"longitude":-75.55,"elevation_m":31.1},{"station_id":"USC00428476","station_name":"SUNNYSIDE_CITY","latitude":39.5528,"longitude":-110.3883,"elevation_m":1993.4},{"station_id":"CA006117700","station_name":"BARRIE_ORO","latitude":44.4833,"longitude":-79.55,"elevation_m":289.0},{"station_id":"USW00023007","station_name":"CHILDRESS_MUNI_AP","latitude":34.4272,"longitude":-100.2831,"elevation_m":594.7},{"station_id":"ASN00018191","station_name":"COULTA_COLES_POINT","latitude":-34.3749,"longitude":135.3741,"elevation_m":28.0},{"station_id":"USC00162525","station_name":"DODSON_6_ENE","latitude":32.1,"longitude":-92.5833,"elevation_m":61.0},{"station_id":"USC00042389","station_name":"DENAIR_3_NNE","latitude":37.5667,"longitude":-120.7833,"elevation_m":43.0},{"station_id":"RSM00032133","station_name":"DOLINSK","latitude":47.333,"longitude":142.8,"elevation_m":11.0},{"station_id":"FRE00104897","station_name":"COGNAC","latitude":45.67,"longitude":-0.32,"elevation_m":30.0},{"station_id":"CYXLT107299","station_name":"AKHYRITOU","latitude":35.03,"longitude":33.88,"elevation_m":24.0},{"station_id":"KGXLT519702","station_name":"ISFARA","latitude":40.13,"longitude":70.1,"elevation_m":847.0},{"station_id":"USC00026180","station_name":"PAGE","latitude":36.9208,"longitude":-111.4483,"elevation_m":1301.5},{"station_id":"GME00004246","station_name":"HOPSTEN_FLUGPLATZ","latitude":52.3331,"longitude":7.55,"elevation_m":39.0},{"station_id":"ASN00026105","station_name":"ROBE_AIRFIELD","latitude":-37.1776,"longitude":139.8054,"elevation_m":3.0},{"station_id":"USC00251149","station_name":"BRIDGEPORT_18WSW","latitude":41.5639,"longitude":-103.3678,"elevation_m":1264.6},{"station_id":"USC00360222","station_name":"ARDMORE","latitude":40.0,"longitude":-75.2833,"elevation_m":103.6},{"station_id":"USC00413267","station_name":"FT_MC_INTOSH","latitude":27.5,"longitude":-99.5167,"elevation_m":139.9},{"station_id":"ASN00054038","station_name":"NARRABRI_AIRPORT_AWS","latitude":-30.3154,"longitude":149.8302,"elevation_m":229.0},{"station_id":"USC00423968","station_name":"HITE","latitude":37.8167,"longitude":-110.4333,"elevation_m":1058.0},{"station_id":"USW00093821","station_name":"LOUISVILLE_INTL_AP","latitude":38.1811,"longitude":-85.7392,"elevation_m":148.7},{"station_id":"ITE00002781","station_name":"BOSCHI_D'AVETO_DIGA","latitude":44.5856,"longitude":9.42,"elevation_m":616.0},{"station_id":"SWE00137840","station_name":"KALMAR_FLYGFLOTTILJ","latitude":56.73,"longitude":16.29,"elevation_m":6.0},{"station_id":"NLE00102128","station_name":"SOESTERBERG","latitude":52.1256,"longitude":5.2733,"elevation_m":14.0},{"station_id":"USC00092161","station_name":"COLUMBUS_DARDC","latitude":32.45,"longitude":-84.9833,"elevation_m":56.4},{"station_id":"PPXLT155240","station_name":"MOMOTE","latitude":-2.5833,"longitude":147.4333,"elevation_m":5.0},{"station_id":"USC00114447","station_name":"JACKSONVILLE_2","latitude":39.7133,"longitude":-90.2286,"elevation_m":182.9},{"station_id":"MUM00041253","station_name":"RUSTAQ","latitude":23.417,"longitude":57.433,"elevation_m":322.0},{"station_id":"SWE00138262","station_name":"STRANDVALLEN","latitude":57.85,"longitude":14.28,"elevation_m":110.0},{"station_id":"USC00290640","station_name":"AUGUSTINE_2E","latitude":34.075,"longitude":-107.6211,"elevation_m":2133.6},{"station_id":"USC00343145","station_name":"FITTSTOWN_6SW_MESONET","latitude":34.5519,"longitude":-96.7178,"elevation_m":349.9},{"station_id":"KG000036982","station_name":"TIAN_SHAN","latitude":41.883,"longitude":78.233,"elevation_m":3639.0},{"station_id":"SWE00140580","station_name":"ALVSBYN_A","latitude":65.67,"longitude":21.07,"elevation_m":40.0},{"station_id":"USC00311441","station_name":"CANTON_1_SW","latitude":35.5167,"longitude":-82.85,"elevation_m":811.4},{"station_id":"USC00034934","station_name":"MOROBAY_LOCK","latitude":33.3167,"longitude":-92.45,"elevation_m":27.1},{"station_id":"USC00200230","station_name":"ANN_ARBOR_U_OF_MICH","latitude":42.2947,"longitude":-83.7108,"elevation_m":274.3},{"station_id":"UK000056225","station_name":"OXFORD","latitude":51.77,"longitude":-1.27,"elevation_m":63.0},{"station_id":"CA007023800","station_name":"LAKE_MEGANTIC","latitude":45.6,"longitude":-70.8833,"elevation_m":401.0},{"station_id":"RSM00027402","station_name":"TVER","latitude":56.883,"longitude":35.867,"elevation_m":137.0},{"station_id":"RSM00022762","station_name":"DVINSKIJ_BEREZNIK","latitude":62.867,"longitude":42.717,"elevation_m":34.0},{"station_id":"USC00231870","station_name":"COOK_STN","latitude":37.8167,"longitude":-91.4333,"elevation_m":302.1},{"station_id":"CA001092519","station_name":"DOME_CREEK","latitude":53.75,"longitude":-121.1667,"elevation_m":671.0},{"station_id":"MXXLT472755","station_name":"AHUALULCO_GOMEZ_FARI","latitude":22.95,"longitude":-99.13,"elevation_m":100.0},{"station_id":"USC00088780","station_name":"TAMIAMI_TRL_40_MI_BEND","latitude":25.7608,"longitude":-80.8242,"elevation_m":4.6},{"station_id":"MOM00060230","station_name":"MENARA","latitude":31.607,"longitude":-8.036,"elevation_m":467.9},{"station_id":"USW00023191","station_name":"AVALON_CATALINA_AP","latitude":33.405,"longitude":-118.4158,"elevation_m":488.3},{"station_id":"USC00416740","station_name":"PADUCAH","latitude":34.0067,"longitude":-100.2989,"elevation_m":579.1},{"station_id":"MLM00061277","station_name":"SAN","latitude":13.333,"longitude":-4.833,"elevation_m":284.0},{"station_id":"JA000047406","station_name":"RUMOI","latitude":43.95,"longitude":141.633,"elevation_m":28.0},{"station_id":"USC00158551","station_name":"WEST_LIBERTY_3NW","latitude":37.9414,"longitude":-83.3017,"elevation_m":237.7},{"station_id":"USC00048014","station_name":"SAUGUS_PWR_PLT_1","latitude":34.5894,"longitude":-118.4547,"elevation_m":636.7},{"station_id":"NC000091577","station_name":"KOUMAC_NLLE_CALEDO","latitude":-20.567,"longitude":164.283,"elevation_m":18.0},{"station_id":"ASN00074106","station_name":"TOCUMWAL_AIRPORT","latitude":-35.817,"longitude":145.6004,"elevation_m":114.0},{"station_id":"NON00059100","station_name":"KRAKENES_FYR","latitude":62.0346,"longitude":4.9859,"elevation_m":38.0},{"station_id":"USC00242511","station_name":"DRUMMOND_FAA_AP","latitude":46.6167,"longitude":-113.2,"elevation_m":1293.0},{"station_id":"FIE00142416","station_name":"RAUMA_KUUSKAJASKARI","latitude":61.1392,"longitude":21.3681,"elevation_m":17.0},{"station_id":"USW00024112","station_name":"MALMSTROM_AFB","latitude":47.5167,"longitude":-111.1833,"elevation_m":1058.3},{"station_id":"CT000004601","station_name":"BOUR","latitude":6.93,"longitude":15.58,"elevation_m":935.0},{"station_id":"CA001083285","station_name":"GRASSY_PLAINS","latitude":53.9167,"longitude":-125.9167,"elevation_m":869.0},{"station_id":"USC00380448","station_name":"BAMBERG","latitude":33.3,"longitude":-81.0306,"elevation_m":50.3},{"station_id":"CA00704BC70","station_name":"FERMONT","latitude":52.8,"longitude":-67.0833,"elevation_m":594.0},{"station_id":"RSM00029562","station_name":"KEMCHUG","latitude":56.1,"longitude":91.667,"elevation_m":332.0},{"station_id":"GME00004073","station_name":"ESLOHE","latitude":51.2553,"longitude":8.1569,"elevation_m":351.0},{"station_id":"BR00C5-0040","station_name":"CATANDUVA","latitude":-21.133,"longitude":-48.967,"elevation_m":536.0},{"station_id":"USR0000WCOW","station_name":"COW_CREEK_WYOMING","latitude":41.2708,"longitude":-107.5819,"elevation_m":2204.9},{"station_id":"RSM00029430","station_name":"TOMSK","latitude":56.5,"longitude":84.9167,"elevation_m":141.0},{"station_id":"GMM00010870","station_name":"MUNICH_ARPT","latitude":48.35,"longitude":11.783,"elevation_m":448.0},{"station_id":"USW00023152","station_name":"BURBANK_GLENDALE_PASADENA_AP","latitude":34.2006,"longitude":-118.3575,"elevation_m":225.9},{"station_id":"IDM00096753","station_name":"BOGOR_DERMAGA","latitude":-6.5,"longitude":106.75,"elevation_m":250.0},{"station_id":"RSM00026298","station_name":"BOLOGOE","latitude":57.9,"longitude":34.1,"elevation_m":213.0},{"station_id":"USC00351174","station_name":"BURNS_JUNCTION","latitude":42.7772,"longitude":-117.8525,"elevation_m":1197.9},{"station_id":"ARM00087640","station_name":"BOLIVAR_AERO","latitude":-36.2,"longitude":-61.067,"elevation_m":94.0},{"station_id":"CA007083630","station_name":"LAC_DOZOIS_BGE_BOURQUE","latitude":47.6333,"longitude":-77.3,"elevation_m":351.0},{"station_id":"ASN00041341","station_name":"INGLEWOOD_TOBACCO_RES","latitude":-28.5,"longitude":150.9333,"elevation_m":265.0},{"station_id":"USR0000CSNR","station_name":"SANTA_RITA_CALIFORNIA","latitude":36.3478,"longitude":-120.5978,"elevation_m":1524.0},{"station_id":"USW00003739","station_name":"CAPE_CHARLES_5_ENE","latitude":37.2908,"longitude":-75.9269,"elevation_m":8.8},{"station_id":"CA001125766","station_name":"OLIVER_STP","latitude":49.1833,"longitude":-119.55,"elevation_m":297.0},{"station_id":"RSM00024679","station_name":"VOSTOCHNAJA","latitude":63.22,"longitude":139.6,"elevation_m":1286.0},{"station_id":"USR0000AALC","station_name":"ALCAN_HWY_MI_1244_ALASKA","latitude":62.8167,"longitude":-141.4667,"elevation_m":548.6},{"station_id":"BLM00085104","station_name":"SAN_JOAQUIN","latitude":-13.067,"longitude":-64.667,"elevation_m":140.0},{"station_id":"SAXLT724072","station_name":"MAKKAH_SAUDI_ARABIA","latitude":21.5,"longitude":39.8,"elevation_m":94.0},{"station_id":"USC00196409","station_name":"PITTSFIELD","latitude":42.45,"longitude":-73.25,"elevation_m":317.0},{"station_id":"CA006139602","station_name":"WOODSLEE_CDA_AUTOMATIC_CLIMATE","latitude":42.2167,"longitude":-82.7333,"elevation_m":183.0},{"station_id":"SZE00001648","station_name":"ENGELBERG","latitude":46.8167,"longitude":8.4167,"elevation_m":1036.0},{"station_id":"ASN00032005","station_name":"CAPE_CLEVELAND_LIGHTHOUSE","latitude":-19.1833,"longitude":147.0167,"elevation_m":58.0},{"station_id":"SWE00138704","station_name":"SNAVLUNDA","latitude":58.97,"longitude":14.9,"elevation_m":135.0},{"station_id":"USW00023177","station_name":"MODENA","latitude":37.7981,"longitude":-113.9256,"elevation_m":1664.2},{"station_id":"RSM00035121","station_name":"ORENBURG","latitude":51.6831,"longitude":55.1,"elevation_m":117.0},{"station_id":"USC00124260","station_name":"INDIANAPOLIS_NWFO","latitude":39.7067,"longitude":-86.2808,"elevation_m":240.8},{"station_id":"USC00307918","station_name":"SOUTH_CANISTEO","latitude":42.1833,"longitude":-77.55,"elevation_m":476.1},{"station_id":"RSM00022798","station_name":"JARENSK","latitude":62.167,"longitude":49.117,"elevation_m":92.0},{"station_id":"USC00473661","station_name":"HINGHAM","latitude":43.6408,"longitude":-87.905,"elevation_m":237.1},{"station_id":"SWE00137642","station_name":"UNGSKAR","latitude":56.04,"longitude":15.81,"elevation_m":3.0},{"station_id":"AGM00060630","station_name":"IN_SALAH","latitude":27.233,"longitude":2.5,"elevation_m":269.0},{"station_id":"USC00046263","station_name":"NORTHRIDGE_CAL_STATE","latitude":34.2447,"longitude":-118.525,"elevation_m":275.5},{"station_id":"USW00094054","station_name":"BUFFALO_JOHNSON_CO_AP","latitude":44.3814,"longitude":-106.7211,"elevation_m":1513.9},{"station_id":"SWE00139832","station_name":"FRANSTA_11","latitude":62.52,"longitude":16.21,"elevation_m":99.0},{"station_id":"UPM00034712","station_name":"MARIUPOL","latitude":47.1,"longitude":37.6,"elevation_m":8.0},{"station_id":"AGXLT191914","station_name":"MASCARA_GRISS_ALGERIA","latitude":35.3,"longitude":0.2,"elevation_m":511.0},{"station_id":"SWE00138080","station_name":"ALLGUNNEN","latitude":57.07,"longitude":15.97,"elevation_m":115.0},{"station_id":"KZ000035344","station_name":"KARABUTAK","latitude":49.95,"longitude":60.133,"elevation_m":229.0},{"station_id":"USC00056205","station_name":"OURAY_2","latitude":38.0264,"longitude":-107.6725,"elevation_m":2352.4},{"station_id":"RSM00031285","station_name":"UDSKOE","latitude":54.5,"longitude":134.4197,"elevation_m":62.0},{"station_id":"CA006126210","station_name":"PAISLEY","latitude":44.2667,"longitude":-81.3667,"elevation_m":244.0},{"station_id":"USC00030064","station_name":"ALICIA_2NNE","latitude":35.9308,"longitude":-91.0547,"elevation_m":78.6},{"station_id":"USC00051071","station_name":"BUENA_VISTA_2S","latitude":38.8247,"longitude":-106.1275,"elevation_m":2421.9},{"station_id":"RSM00030555","station_name":"TROICKIJ_PRIISK","latitude":54.6167,"longitude":113.1331,"elevation_m":1315.0},{"station_id":"USC00161729","station_name":"CHENEYVILLE_1_NE","latitude":31.0167,"longitude":-92.2833,"elevation_m":18.0},{"station_id":"USW00024046","station_name":"CRAIG_MOFFAT_CO_AP","latitude":40.4953,"longitude":-107.5211,"elevation_m":1885.5},{"station_id":"RSM00032145","station_name":"NEVELSK","latitude":46.67,"longitude":141.87,"elevation_m":22.0},{"station_id":"USC00358466","station_name":"THREE_LYNX","latitude":45.1219,"longitude":-122.07,"elevation_m":341.4},{"station_id":"ASN00063231","station_name":"ORANGE_AIRPORT_COMPARISON","latitude":-33.3815,"longitude":149.1229,"elevation_m":948.0},{"station_id":"CA001057052","station_name":"SANDSPIT","latitude":53.25,"longitude":-131.8167,"elevation_m":6.0},{"station_id":"USC00109601","station_name":"WAYAN","latitude":42.9728,"longitude":-111.4097,"elevation_m":1961.7},{"station_id":"CIXLT662632","station_name":"JUAN_FERNANDEZ","latitude":-33.45,"longitude":-78.87,"elevation_m":null},{"station_id":"CHM00057067","station_name":"LUSHI","latitude":34.05,"longitude":111.033,"elevation_m":570.0},{"station_id":"USC00051959","station_name":"CRESTED_BUTTE","latitude":38.8739,"longitude":-106.9769,"elevation_m":2702.1},{"station_id":"CA003072063","station_name":"DEMMITT_CDA_EPF","latitude":55.45,"longitude":-119.9333,"elevation_m":793.0},{"station_id":"USC00091863","station_name":"CHATSWORTH_2","latitude":34.7583,"longitude":-84.7642,"elevation_m":216.4},{"station_id":"BR002450000","station_name":"CASTRO","latitude":-24.783,"longitude":-50.0,"elevation_m":1009.0},{"station_id":"USW00023157","station_name":"BISHOP_AP","latitude":37.3711,"longitude":-118.3581,"elevation_m":1250.3},{"station_id":"CA004022960","station_name":"GRAVELBOURG","latitude":49.8833,"longitude":-106.55,"elevation_m":700.0},{"station_id":"USC00204104","station_name":"IRONWOOD","latitude":46.4656,"longitude":-90.1892,"elevation_m":435.9},{"station_id":"SPE00120629","station_name":"DAROCA","latitude":41.1144,"longitude":-1.4106,"elevation_m":779.0},{"station_id":"USC00517421","station_name":"PAHALA_21","latitude":19.1986,"longitude":-155.4778,"elevation_m":256.0},{"station_id":"USC00509314","station_name":"TOK_2","latitude":63.3156,"longitude":-143.0058,"elevation_m":505.4},{"station_id":"USC00057618","station_name":"SHOSHONE","latitude":39.5703,"longitude":-107.2267,"elevation_m":1826.4},{"station_id":"ROM00015247","station_name":"TRAIAN_VUIA","latitude":45.81,"longitude":21.338,"elevation_m":106.1},{"station_id":"FIE00143270","station_name":"LAPPEENRANTA_KONNUNSUO","latitude":61.0392,"longitude":28.5656,"elevation_m":46.0},{"station_id":"USC00308746","station_name":"VALATIE_1_N","latitude":42.4333,"longitude":-73.6833,"elevation_m":91.4},{"station_id":"ASN00037010","station_name":"CAMOOWEAL_TOWNSHIP","latitude":-19.9225,"longitude":138.1214,"elevation_m":231.2},{"station_id":"FPM00091945","station_name":"HEREHERETUE","latitude":-19.9,"longitude":-145.0,"elevation_m":4.0},{"station_id":"CA001076886","station_name":"ROSSWOOD","latitude":54.85,"longitude":-128.8,"elevation_m":183.0},{"station_id":"USC00221738","station_name":"CLEVELAND","latitude":33.7367,"longitude":-90.7444,"elevation_m":42.1},{"station_id":"RSM00029023","station_name":"NAPAS","latitude":59.85,"longitude":81.95,"elevation_m":77.0},{"station_id":"CA001092972","station_name":"FORT_ST_JAMES_A","latitude":54.4167,"longitude":-124.25,"elevation_m":716.0},{"station_id":"CA001101890","station_name":"COQUITLAM_LAKE","latitude":49.3667,"longitude":-122.8,"elevation_m":161.0},{"station_id":"CA001032730","station_name":"ESTEVAN_POINT","latitude":49.3833,"longitude":-126.55,"elevation_m":7.0},{"station_id":"USC00475286","station_name":"MELLEN_4_NE","latitude":46.3689,"longitude":-90.6417,"elevation_m":396.2},{"station_id":"ARM00087166","station_name":"CORRIENTES","latitude":-27.446,"longitude":-58.762,"elevation_m":61.9},{"station_id":"USR0000CTRM","station_name":"TRIMMER_CALIFORNIA","latitude":36.9111,"longitude":-119.305,"elevation_m":469.4},{"station_id":"CA008202896","station_name":"LAKE_MAJOR","latitude":44.7167,"longitude":-63.4833,"elevation_m":63.0},{"station_id":"BF000078073","station_name":"NASSAU_AIRPORT_NEW","latitude":25.05,"longitude":-77.467,"elevation_m":5.0},{"station_id":"USC00058690","station_name":"VIRGINIA_DALE_7_ENE","latitude":40.9656,"longitude":-105.2186,"elevation_m":2138.2},{"station_id":"USC00335585","station_name":"MT_VERNON","latitude":40.3833,"longitude":-82.4667,"elevation_m":298.7},{"station_id":"BRXLT514887","station_name":"ALTO_TAPAJOS_BRAZIL","latitude":-7.4,"longitude":-57.5,"elevation_m":140.0},{"station_id":"SF003724960","station_name":"VRYHEID","latitude":-27.783,"longitude":30.8,"elevation_m":1163.0},{"station_id":"CA002201800","station_name":"FORT_PROVIDENCE","latitude":61.3333,"longitude":-117.6667,"elevation_m":159.0},{"station_id":"USC00180915","station_name":"BLACKWATER_REFUGE","latitude":38.4333,"longitude":-76.1333,"elevation_m":3.0},{"station_id":"USC00131541","station_name":"CLARION","latitude":42.72,"longitude":-93.7336,"elevation_m":352.3},{"station_id":"MXXLT371802","station_name":"LABUFA","latitude":22.7761,"longitude":-99.3091,"elevation_m":2443.0},{"station_id":"USC00111329","station_name":"CASEY","latitude":39.2975,"longitude":-87.9747,"elevation_m":189.0},{"station_id":"USR0000VCRA","station_name":"CRAIG_VALLEY_VIRGINIA","latitude":37.5222,"longitude":-80.0797,"elevation_m":385.9},{"station_id":"PE000084444","station_name":"CHACHAPOYAS","latitude":-6.2,"longitude":-77.85,"elevation_m":2540.0},{"station_id":"USC00350318","station_name":"ASTOR_EXP_STN","latitude":46.15,"longitude":-123.8167,"elevation_m":14.9},{"station_id":"USC00137386","station_name":"SANBORN","latitude":43.1792,"longitude":-95.6603,"elevation_m":472.7},{"station_id":"GME00004723","station_name":"WAIBLINGEN","latitude":48.8289,"longitude":9.3239,"elevation_m":224.0},{"station_id":"USC00120334","station_name":"AUBURN_2_SSE","latitude":41.3333,"longitude":-85.05,"elevation_m":266.7},{"station_id":"USC00142380","station_name":"EDWARDSVILLE_3_NNW","latitude":39.1,"longitude":-94.8333,"elevation_m":292.6},{"station_id":"USW00012917","station_name":"PORT_ARTHUR_SE_TX_AP","latitude":29.9506,"longitude":-94.0206,"elevation_m":4.9},{"station_id":"USC00414976","station_name":"LAKE_FORK_RSVR","latitude":32.8242,"longitude":-95.5275,"elevation_m":126.2},{"station_id":"KNM00047037","station_name":"KUSONG","latitude":39.983,"longitude":125.25,"elevation_m":99.0},{"station_id":"USC00146808","station_name":"RICHFIELD","latitude":37.2633,"longitude":-101.7886,"elevation_m":1032.4},{"station_id":"MX000021064","station_name":"LA_SOLEDAD","latitude":19.95,"longitude":-97.43,"elevation_m":816.0},{"station_id":"AUM00011036","station_name":"WIEN_SCHWECHAT_FLUG","latitude":48.117,"longitude":16.567,"elevation_m":183.0},{"station_id":"USW00003809","station_name":"DYERSBURG_III_GOLF","latitude":36.0003,"longitude":-89.41,"elevation_m":91.4},{"station_id":"USC00204130","station_name":"ISHPEMING_WWTP","latitude":46.4911,"longitude":-87.6894,"elevation_m":440.1},{"station_id":"USS0015J12S","station_name":"CORRAL_CANYON","latitude":40.2833,"longitude":-115.5333,"elevation_m":2590.8},{"station_id":"USC00043578","station_name":"GRATON","latitude":38.4306,"longitude":-122.8647,"elevation_m":61.0},{"station_id":"USR0000ACHE","station_name":"CHERRY_ARIZONA","latitude":34.5964,"longitude":-112.0481,"elevation_m":1554.5},{"station_id":"USR0000CWES","station_name":"WESTWOOD_CALIFORNIA","latitude":40.3067,"longitude":-120.9,"elevation_m":1767.8},{"station_id":"USC00404613","station_name":"JEFFERSON_CITY","latitude":36.1222,"longitude":-83.4739,"elevation_m":337.7},{"station_id":"USC00389122","station_name":"WEST_PELZER","latitude":34.6428,"longitude":-82.4547,"elevation_m":224.0},{"station_id":"GMM00010818","station_name":"KLIPPENECK_CLIFF","latitude":48.1,"longitude":8.75,"elevation_m":973.0},{"station_id":"USC00507513","station_name":"PORT_ALCAN","latitude":62.6211,"longitude":-141.0061,"elevation_m":576.7},{"station_id":"USC00293840","station_name":"HARVEYS_UPPER_RCH","latitude":35.75,"longitude":-105.4667,"elevation_m":2730.1},{"station_id":"USC00456624","station_name":"PORT_ANGELES","latitude":48.1139,"longitude":-123.4317,"elevation_m":27.4},{"station_id":"USC00259513","station_name":"YORK_3N","latitude":40.9153,"longitude":-97.5997,"elevation_m":491.6},{"station_id":"USC00348042","station_name":"SEMINOLE","latitude":35.2317,"longitude":-96.6531,"elevation_m":279.8},{"station_id":"USW00054768","station_name":"NORTH_ADAMS_HARRIMAN_AP","latitude":42.6958,"longitude":-73.1708,"elevation_m":199.3},{"station_id":"PLE00000926","station_name":"SULEJOW","latitude":51.35,"longitude":19.8667,"elevation_m":188.0},{"station_id":"USC00046960","station_name":"PLACERVILLE","latitude":38.6956,"longitude":-120.8244,"elevation_m":563.9},{"station_id":"MXXLT730878","station_name":"SAN_BORJA_ENSENADA","latitude":28.78,"longitude":-113.93,"elevation_m":412.0},{"station_id":"CA008300600","station_name":"SUMMERSIDE_CDA","latitude":46.4,"longitude":-63.7833,"elevation_m":5.0},{"station_id":"CA005022120","station_name":"PILOT_MOUND","latitude":49.2,"longitude":-98.8833,"elevation_m":475.0},{"station_id":"USR0000MBRO","station_name":"BROWNING_BFA_MONTANA","latitude":48.5617,"longitude":-113.0133,"elevation_m":1336.2},{"station_id":"AYM00089592","station_name":"MIRNYJ","latitude":-66.55,"longitude":93.017,"elevation_m":40.0},{"station_id":"USR0000AGOO","station_name":"GOODWIN_MESA_ARIZONA","latitude":34.75,"longitude":-113.3,"elevation_m":1280.2},{"station_id":"ASN00009538","station_name":"DWELLINGUP","latitude":-32.7103,"longitude":116.0594,"elevation_m":267.0},{"station_id":"GME00004755","station_name":"WELLMITZ","latitude":52.0667,"longitude":14.6917,"elevation_m":58.0},{"station_id":"CA005022547","station_name":"ST_ANDREWS","latitude":50.0833,"longitude":-96.9833,"elevation_m":230.0},{"station_id":"TI000038847","station_name":"DANGARA","latitude":38.1,"longitude":69.317,"elevation_m":660.0},{"station_id":"USW00013960","station_name":"DALLAS_LOVE_FLD","latitude":32.8519,"longitude":-96.8556,"elevation_m":134.1},{"station_id":"PKM00041715","station_name":"SHAHBAZ_AB","latitude":28.284,"longitude":68.45,"elevation_m":56.4},{"station_id":"TZ000063862","station_name":"DODOMA","latitude":-6.167,"longitude":35.767,"elevation_m":1120.0},{"station_id":"POXLT375948","station_name":"VILA_REAL","latitude":41.3167,"longitude":-7.7333,"elevation_m":481.0},{"station_id":"USW00013969","station_name":"PONCA_CITY_MUNI_AP","latitude":36.7367,"longitude":-97.1019,"elevation_m":304.8},{"station_id":"ASN00070014","station_name":"CANBERRA_AIRPORT_COMPARISON","latitude":-35.3049,"longitude":149.2014,"elevation_m":578.4},{"station_id":"RSM00030859","station_name":"AGINSKOE","latitude":51.1,"longitude":114.52,"elevation_m":680.0},{"station_id":"CA00612HKLR","station_name":"THEDFORD","latitude":43.1833,"longitude":-81.85,"elevation_m":200.0},{"station_id":"CA005060600","station_name":"CHURCHILL_A","latitude":58.7333,"longitude":-94.0667,"elevation_m":29.0},{"station_id":"PPM00092044","station_name":"MOMOTE_WO","latitude":-2.05,"longitude":147.417,"elevation_m":4.0},{"station_id":"USC00365336","station_name":"MADERA_2_SE","latitude":40.8,"longitude":-78.4,"elevation_m":487.7},{"station_id":"USR0000WBRO","station_name":"BROWN_MTN_ORCHARD_WASHINGTON","latitude":48.5353,"longitude":-118.6889,"elevation_m":990.6},{"station_id":"THM00048453","station_name":"BANG_NA_AGROMET","latitude":13.667,"longitude":100.617,"elevation_m":6.0},{"station_id":"RSM00025123","station_name":"CHERSKIJ","latitude":68.75,"longitude":161.283,"elevation_m":28.0},{"station_id":"CA004017370","station_name":"SERATH","latitude":51.1667,"longitude":-104.4,"elevation_m":622.0},{"station_id":"USC00246615","station_name":"POLEBRIDGE","latitude":48.7647,"longitude":-114.2842,"elevation_m":1072.9},{"station_id":"ASN00088041","station_name":"MALDON_DERBY_HILL","latitude":-36.9989,"longitude":144.0703,"elevation_m":320.0},{"station_id":"USS0013F04S","station_name":"GARFIELD_RS","latitude":43.6167,"longitude":-113.9333,"elevation_m":1999.5},{"station_id":"CA001126070","station_name":"PEACHLAND","latitude":49.7833,"longitude":-119.7167,"elevation_m":345.0},{"station_id":"USR0000CMRF","station_name":"MOREFIELD_COLORADO","latitude":37.3006,"longitude":-108.4133,"elevation_m":2383.5},{"station_id":"AUXLT989796","station_name":"RETZ","latitude":48.77,"longitude":15.97,"elevation_m":242.0},{"station_id":"USC00320961","station_name":"BOWBELLS","latitude":48.7994,"longitude":-102.2464,"elevation_m":597.7},{"station_id":"USW00014813","station_name":"AKRON_FULTON_INTL_AP","latitude":41.0375,"longitude":-81.4642,"elevation_m":318.2},{"station_id":"CA007057287","station_name":"STE_GERMAINE","latitude":46.4167,"longitude":-70.4667,"elevation_m":511.0},{"station_id":"FIE00142266","station_name":"PORVOO_JERNBOLE","latitude":60.4056,"longitude":25.6589,"elevation_m":17.0},{"station_id":"SU000062781","station_name":"EN_NAHUD","latitude":12.7,"longitude":28.433,"elevation_m":564.0},{"station_id":"USC00341648","station_name":"CENTRAHOMA_2_ESE","latitude":34.6008,"longitude":-96.3131,"elevation_m":216.4},{"station_id":"NON00012640","station_name":"LILLEHAMMER_III","latitude":61.0808,"longitude":10.4756,"elevation_m":271.0},{"station_id":"USC00032908","station_name":"GRANNIS","latitude":34.25,"longitude":-94.3333,"elevation_m":281.0},{"station_id":"USR0000CTAL","station_name":"TALEGA_CALIFORNIA","latitude":33.4781,"longitude":-117.4858,"elevation_m":366.7},{"station_id":"ASN00030018","station_name":"GEORGETOWN_POST_OFFICE","latitude":-18.2922,"longitude":143.5483,"elevation_m":291.7},{"station_id":"USS0010G23S","station_name":"WILLOW_CREEK","latitude":42.8167,"longitude":-110.8167,"elevation_m":2575.6},{"station_id":"USC00202804","station_name":"FILION_5NNW","latitude":43.9158,"longitude":-83.0831,"elevation_m":193.5},{"station_id":"CA001036240","station_name":"PORT_ALICE","latitude":50.3833,"longitude":-127.45,"elevation_m":21.0},{"station_id":"CD000004754","station_name":"AM_TIMAN","latitude":11.03,"longitude":20.28,"elevation_m":436.0},{"station_id":"ASN00063036","station_name":"OBERON_JENOLAN_CAVES","latitude":-33.8199,"longitude":150.0227,"elevation_m":792.0},{"station_id":"PM090485000","station_name":"LOS_SANTOS","latitude":7.95,"longitude":-80.42,"elevation_m":16.0},{"station_id":"ITE00000862","station_name":"PORRETTA_TERME","latitude":44.1542,"longitude":10.9769,"elevation_m":352.0},{"station_id":"USC00228684","station_name":"TCHULA","latitude":33.1833,"longitude":-90.2167,"elevation_m":36.9},{"station_id":"COM00080009","station_name":"SIMON_BOLIVAR","latitude":11.12,"longitude":-74.231,"elevation_m":6.7},{"station_id":"USC00054606","station_name":"KIT_CARSON_9NNE","latitude":38.8867,"longitude":-102.7233,"elevation_m":1405.1},{"station_id":"FIE00145052","station_name":"ILOMANTSI_MEKRIJARVI","latitude":62.7692,"longitude":30.9778,"elevation_m":155.0},{"station_id":"ASN00061288","station_name":"LOSTOCK_DAM","latitude":-32.3322,"longitude":151.4595,"elevation_m":200.0},{"station_id":"USC00331390","station_name":"CELINA_3_NE","latitude":40.5694,"longitude":-84.5364,"elevation_m":262.1},{"station_id":"USC00132171","station_name":"DENISON","latitude":42.0364,"longitude":-95.3289,"elevation_m":427.0},{"station_id":"FIM00002947","station_name":"MIKKELI","latitude":61.733,"longitude":27.3,"elevation_m":138.0},{"station_id":"CA002100907","station_name":"PORTER_CREEK_WAHL","latitude":60.7667,"longitude":-135.1167,"elevation_m":713.0},{"station_id":"USC00221389","station_name":"CANTON_4N","latitude":32.6714,"longitude":-90.0361,"elevation_m":76.2},{"station_id":"IDM00097048","station_name":"JALALUDDIN","latitude":0.637,"longitude":122.85,"elevation_m":32.0},{"station_id":"USR0000FOLU","station_name":"OLUSTEE_FLORIDA","latitude":30.2,"longitude":-82.4,"elevation_m":45.7},{"station_id":"USC00409431","station_name":"WARNER_PARK","latitude":36.0608,"longitude":-86.9064,"elevation_m":190.5},{"station_id":"RSM00031489","station_name":"GORIN","latitude":51.2,"longitude":136.8,"elevation_m":92.0},{"station_id":"RSM00030829","station_name":"NOVOSELENGINSK","latitude":51.1,"longitude":106.65,"elevation_m":556.0},{"station_id":"CA006151548","station_name":"CLARKSON","latitude":43.5167,"longitude":-79.6167,"elevation_m":93.0},{"station_id":"USW00026519","station_name":"FAREWELL_FAA_AP","latitude":62.5167,"longitude":-153.8833,"elevation_m":458.1},{"station_id":"USR0000VCHI","station_name":"CHINCOTEAGUE_VIRGINIA","latitude":37.9333,"longitude":-75.35,"elevation_m":2.4},{"station_id":"RSM00029649","station_name":"KRAPIVINO","latitude":55.0,"longitude":86.8,"elevation_m":151.0},{"station_id":"USC00207350","station_name":"SANDUSKY","latitude":43.4194,"longitude":-82.8192,"elevation_m":235.9},{"station_id":"ASN00005017","station_name":"ONSLOW_AIRPORT","latitude":-21.6689,"longitude":115.1092,"elevation_m":10.5},{"station_id":"USC00248093","station_name":"SWEETGRASS","latitude":48.9972,"longitude":-111.9642,"elevation_m":1069.8},{"station_id":"CHXLT772280","station_name":"JIANGLING","latitude":30.33,"longitude":112.18,"elevation_m":33.0},{"station_id":"CA005020551","station_name":"CARMAN","latitude":49.4333,"longitude":-98.15,"elevation_m":282.0},{"station_id":"CHM00057633","station_name":"YOUYANG","latitude":28.833,"longitude":108.767,"elevation_m":665.0},{"station_id":"CHXLT874549","station_name":"LINHE","latitude":40.77,"longitude":107.4,"elevation_m":1041.0},{"station_id":"USC00457919","station_name":"SPIRIT_LAKE_RS","latitude":46.2667,"longitude":-122.15,"elevation_m":987.9},{"station_id":"KZ000038091","station_name":"ULANBEL","latitude":44.8,"longitude":71.067,"elevation_m":266.0},{"station_id":"SAM00040401","station_name":"PRINCE_ABDULMAJEED_BIN_ABDULA","latitude":26.294,"longitude":38.064,"elevation_m":623.0},{"station_id":"MX000032005","station_name":"FELIPE_PESCADOR","latitude":23.6,"longitude":-102.72,"elevation_m":2116.0},{"station_id":"CA00114EMDM","station_name":"NELSON_RIXEN_CREEK","latitude":49.5167,"longitude":-117.4,"elevation_m":760.0},{"station_id":"NON00049940","station_name":"GRANVIN","latitude":60.5918,"longitude":6.805,"elevation_m":352.0},{"station_id":"USC00291440","station_name":"CAPITAN","latitude":33.5311,"longitude":-105.5947,"elevation_m":1975.1},{"station_id":"USC00426919","station_name":"PLEASANT_GROVE","latitude":40.3675,"longitude":-111.7339,"elevation_m":1436.2},{"station_id":"GME00004899","station_name":"ALBSTADT_BADKAP","latitude":48.2164,"longitude":8.9792,"elevation_m":759.0},{"station_id":"CA003070560","station_name":"BEAVERLODGE_CDA","latitude":55.2,"longitude":-119.4,"elevation_m":745.0},{"station_id":"USW00014849","station_name":"TOLEDO_WB_AP","latitude":41.5667,"longitude":-83.4667,"elevation_m":193.9},{"station_id":"USW00013983","station_name":"COLUMBIA_WSO_AP","latitude":38.9667,"longitude":-92.3667,"elevation_m":237.1},{"station_id":"PLXLT230757","station_name":"GDYNIA","latitude":54.5,"longitude":18.6,"elevation_m":5.0},{"station_id":"ASN00043020","station_name":"MITCHELL_POST_OFFICE","latitude":-26.4888,"longitude":147.9777,"elevation_m":336.5},{"station_id":"USC00512905","station_name":"KALAWAO","latitude":21.1833,"longitude":-156.95,"elevation_m":21.0},{"station_id":"NOE00110285","station_name":"GVARV","latitude":59.3831,"longitude":9.1831,"elevation_m":26.0},{"station_id":"USW00093073","station_name":"ASPEN_PITKIN_CO_AP","latitude":39.2231,"longitude":-106.8683,"elevation_m":2353.1},{"station_id":"USC00417705","station_name":"ROCKPORT_MARINE_LAB","latitude":28.0167,"longitude":-97.05,"elevation_m":3.0},{"station_id":"CA002303610","station_name":"ROBERTSON_LAKE_AUT","latitude":65.1,"longitude":-102.4333,"elevation_m":244.0},{"station_id":"USC00413828","station_name":"GUTHRIE","latitude":33.6267,"longitude":-100.3369,"elevation_m":536.4},{"station_id":"USW00004111","station_name":"EVANSTON_BURNS_FLD","latitude":41.2731,"longitude":-111.0306,"elevation_m":2183.3},{"station_id":"USC00319704","station_name":"YANCEYVILLE_4_SE","latitude":36.3783,"longitude":-79.2544,"elevation_m":199.6},{"station_id":"CHXLT670364","station_name":"DELINGHA","latitude":37.37,"longitude":97.37,"elevation_m":2982.0},{"station_id":"CA00109A4NG","station_name":"CASTLE_ROCK_6_NORTH","latitude":52.5333,"longitude":-122.4833,"elevation_m":541.0},{"station_id":"USC00346935","station_name":"PAWHUSKA","latitude":36.6692,"longitude":-96.3472,"elevation_m":254.5},{"station_id":"CA006042715","station_name":"GERALDTON","latitude":49.7,"longitude":-86.95,"elevation_m":331.0},{"station_id":"UVM00065505","station_name":"DEDOUGOU","latitude":12.467,"longitude":3.483,"elevation_m":300.0},{"station_id":"USC00244368","station_name":"ILIAD","latitude":47.8056,"longitude":-109.81,"elevation_m":903.7},{"station_id":"GME00121042","station_name":"KOLN_BONN","latitude":50.8658,"longitude":7.1583,"elevation_m":92.0},{"station_id":"HUM00012830","station_name":"VESZPREM_SZENTKIRAL","latitude":47.067,"longitude":17.833,"elevation_m":281.0},{"station_id":"VQW00011640","station_name":"CHARLOTTE_AMALIE_AP","latitude":18.3331,"longitude":-64.9667,"elevation_m":6.1},{"station_id":"GMM00010042","station_name":"OLPENITZ_AUT","latitude":54.667,"longitude":10.033,"elevation_m":4.0},{"station_id":"USC00010407","station_name":"ATMORE","latitude":31.0167,"longitude":-87.5167,"elevation_m":67.1},{"station_id":"ASN00088109","station_name":"MANGALORE_AIRPORT","latitude":-36.8886,"longitude":145.1859,"elevation_m":140.8},{"station_id":"USC00251345","station_name":"BURWELL","latitude":41.7769,"longitude":-99.1433,"elevation_m":663.2},{"station_id":"ASN00065012","station_name":"DUBBO_DARLING_STREET","latitude":-32.2385,"longitude":148.6089,"elevation_m":260.0},{"station_id":"USC00154938","station_name":"MARION","latitude":37.6667,"longitude":-85.4,"elevation_m":207.6},{"station_id":"CA001183001","station_name":"FORT_ST_JOHN_A","latitude":56.2333,"longitude":-120.7333,"elevation_m":695.0},{"station_id":"USS0009S18S","station_name":"WILDCAT","latitude":33.75,"longitude":-109.5,"elevation_m":2392.7},{"station_id":"ASN00010692","station_name":"NEWDEGATE_RESEARCH_STATION","latitude":-33.1131,"longitude":118.84,"elevation_m":320.0},{"station_id":"USR0000OWAS","station_name":"WASCO_BUTTE_OREGON","latitude":45.61,"longitude":-121.33,"elevation_m":714.8},{"station_id":"GLE00146961","station_name":"ILULISSAT","latitude":69.22,"longitude":-51.1,"elevation_m":39.0},{"station_id":"IDM00097126","station_name":"MASAMBA_ANDI_JEMMA","latitude":-2.55,"longitude":120.367,"elevation_m":50.0},{"station_id":"MD000033748","station_name":"KORNESTY","latitude":47.333,"longitude":28.083,"elevation_m":232.0},{"station_id":"NON00085780","station_name":"GLAPEN_FYR","latitude":67.8833,"longitude":13.05,"elevation_m":31.0},{"station_id":"HUM00012950","station_name":"PAKS","latitude":46.6167,"longitude":18.8667,"elevation_m":97.0},{"station_id":"USC00104908","station_name":"KILGORE","latitude":44.4,"longitude":-111.8833,"elevation_m":1876.0},{"station_id":"USC00457319","station_name":"SAPPHO_8_E","latitude":48.0667,"longitude":-124.1167,"elevation_m":231.6},{"station_id":"USC00253394","station_name":"GRAND_ISLAND_1","latitude":40.9167,"longitude":-98.35,"elevation_m":null},{"station_id":"CA007022579","station_name":"FRELIGHSBURG","latitude":45.05,"longitude":-72.8667,"elevation_m":152.0},{"station_id":"USC00475120","station_name":"MARSHFIELD_EXP_FARM","latitude":44.6411,"longitude":-90.1333,"elevation_m":377.0},{"station_id":"JA000047670","station_name":"YOKOHAMA","latitude":35.433,"longitude":139.65,"elevation_m":42.0},{"station_id":"RSM00030102","station_name":"KEZMA","latitude":58.967,"longitude":101.083,"elevation_m":185.0},{"station_id":"ASN00058060","station_name":"WHIAN_WHIAN_RUMMERY_PARK","latitude":-28.5988,"longitude":153.3783,"elevation_m":370.0},{"station_id":"NOE00105476","station_name":"HOPEN","latitude":76.5,"longitude":25.0667,"elevation_m":6.0},{"station_id":"USC00301664","station_name":"COLTON_2_N","latitude":44.5842,"longitude":-74.9572,"elevation_m":176.8},{"station_id":"UKM00003063","station_name":"AVIEMORE","latitude":57.2,"longitude":-3.833,"elevation_m":228.0},{"station_id":"USR0000AGEO","station_name":"GEORGE_CREEK_ALASKA","latitude":63.8375,"longitude":-144.3503,"elevation_m":464.8},{"station_id":"TZ000063962","station_name":"SONGEA","latitude":-10.667,"longitude":35.583,"elevation_m":1036.0},{"station_id":"SP000008202","station_name":"SALAMANCA_AEROPUERTO","latitude":40.9592,"longitude":-5.4981,"elevation_m":790.0},{"station_id":"CA001016640","station_name":"RACE_ROCKS_CS","latitude":48.3,"longitude":-123.5333,"elevation_m":3.0},{"station_id":"USC00092266","station_name":"CORDELE","latitude":31.985,"longitude":-83.7747,"elevation_m":93.9},{"station_id":"SWE00137708","station_name":"MARIELUND","latitude":56.22,"longitude":15.53,"elevation_m":25.0},{"station_id":"CA008101300","station_name":"EDMUNDSTON","latitude":47.3667,"longitude":-68.3333,"elevation_m":174.0},{"station_id":"RP000098429","station_name":"NINOY_AQUINO_INTERN","latitude":14.517,"longitude":121.0,"elevation_m":15.0},{"station_id":"USW00093993","station_name":"FAYETTEVILLE_DRAKE_FLD","latitude":36.0097,"longitude":-94.1694,"elevation_m":381.3},{"station_id":"USR0000NJUN","station_name":"JUNIPER_SPRINGS_NEVADA","latitude":41.0819,"longitude":-119.7772,"elevation_m":1630.1},{"station_id":"JA000047836","station_name":"YAKUSHIMA","latitude":30.383,"longitude":130.667,"elevation_m":38.0},{"station_id":"SFXLT826711","station_name":"ADDOAGR_EASTERN_C","latitude":-33.57,"longitude":25.7,"elevation_m":85.0},{"station_id":"USC00087440","station_name":"RAIFORD_STATE_PRISON","latitude":30.0678,"longitude":-82.1928,"elevation_m":36.6},{"station_id":"MOE00147756","station_name":"TETUAN","latitude":35.58,"longitude":-5.33,"elevation_m":10.0},{"station_id":"USR0000CSHA","station_name":"SHAVER_CALIFORNIA","latitude":37.135,"longitude":-119.2561,"elevation_m":1751.4},{"station_id":"USC00171472","station_name":"CLAYTON_LAKE","latitude":46.6108,"longitude":-69.5231,"elevation_m":304.8},{"station_id":"JAW00042502","station_name":"MINAMI_TORI_SHIMA_MA","latitude":24.3,"longitude":153.9667,"elevation_m":6.1},{"station_id":"CIM00085766","station_name":"PICHOY","latitude":-39.65,"longitude":-73.086,"elevation_m":18.0},{"station_id":"USC00049621","station_name":"WHISKEYTOWN_RSVR","latitude":40.6117,"longitude":-122.5281,"elevation_m":394.7},{"station_id":"USC00221880","station_name":"COLUMBUS","latitude":33.4678,"longitude":-88.3847,"elevation_m":44.2},{"station_id":"USC00487240","station_name":"PINE_BLUFFS_5W","latitude":41.1722,"longitude":-104.1583,"elevation_m":1578.9},{"station_id":"UZM00038565","station_name":"NURATA","latitude":40.55,"longitude":65.683,"elevation_m":485.0},{"station_id":"CA003034596","station_name":"MONARCH","latitude":49.8167,"longitude":-113.1667,"elevation_m":947.0},{"station_id":"USC00447174","station_name":"RICHLANDS","latitude":37.0947,"longitude":-81.7936,"elevation_m":582.2},{"station_id":"CA00401HP5R","station_name":"WEYBURN","latitude":49.7,"longitude":-103.8,"elevation_m":589.0},{"station_id":"USC00230165","station_name":"ANDERSON","latitude":36.65,"longitude":-94.5167,"elevation_m":320.0},{"station_id":"USS0015C16S","station_name":"COOL_CREEK","latitude":46.7667,"longitude":-115.3,"elevation_m":1914.1},{"station_id":"USC00353192","station_name":"GARDINER","latitude":43.7333,"longitude":-124.3,"elevation_m":9.1},{"station_id":"UPM00033848","station_name":"OCHAKOV","latitude":46.633,"longitude":31.55,"elevation_m":41.0},{"station_id":"CA003015797","station_name":"SEDALIA_AGCM","latitude":51.5833,"longitude":-110.75,"elevation_m":755.0},{"station_id":"USS0005M03S","station_name":"CULEBRA_2","latitude":37.2167,"longitude":-105.2,"elevation_m":3200.4},{"station_id":"RSM00028138","station_name":"BISER","latitude":58.5167,"longitude":58.85,"elevation_m":463.0},{"station_id":"ASN00040282","station_name":"NAMBOUR_DPI","latitude":-26.6431,"longitude":152.9392,"elevation_m":32.5},{"station_id":"JA000047936","station_name":"NAHA","latitude":26.2,"longitude":127.683,"elevation_m":53.0},{"station_id":"USC00343304","station_name":"FT_SUPPLY_3SE","latitude":36.5442,"longitude":-99.535,"elevation_m":618.7},{"station_id":"IRM00040879","station_name":"IRAN_SHAHR","latitude":27.236,"longitude":60.72,"elevation_m":620.9},{"station_id":"ASN00016001","station_name":"WOOMERA_AERODROME","latitude":-31.1558,"longitude":136.8054,"elevation_m":166.6},{"station_id":"CHM00051709","station_name":"KASHI","latitude":39.467,"longitude":75.983,"elevation_m":1380.0},{"station_id":"NIM00065201","station_name":"MURTALA_MUHAMMED","latitude":6.577,"longitude":3.321,"elevation_m":41.1},{"station_id":"ASN00018195","station_name":"MINNIPA_DPI","latitude":-32.8427,"longitude":135.1515,"elevation_m":165.0},{"station_id":"USS0022G14S","station_name":"FISH_LK","latitude":42.3833,"longitude":-122.4167,"elevation_m":1421.9},{"station_id":"USC00262860","station_name":"FISH_CREEK_RCH","latitude":39.2667,"longitude":-116.0,"elevation_m":1845.0},{"station_id":"EZM00011438","station_name":"TUSIMICE","latitude":50.377,"longitude":13.328,"elevation_m":326.0},{"station_id":"USC00201502","station_name":"CHELSEA","latitude":42.3264,"longitude":-84.0133,"elevation_m":274.3},{"station_id":"CA0011790J1","station_name":"YOHO_PARK","latitude":51.45,"longitude":-116.35,"elevation_m":1602.0},{"station_id":"USC00225687","station_name":"MC_NEILL","latitude":30.8167,"longitude":-89.6,"elevation_m":70.1},{"station_id":"USC00292207","station_name":"CROSSROADS_2","latitude":33.5133,"longitude":-103.3403,"elevation_m":1261.3},{"station_id":"USR0000TPRE","station_name":"PRENTICE_COOPER_SF_TENNESSEE","latitude":35.1303,"longitude":-85.4278,"elevation_m":585.2},{"station_id":"USC00419588","station_name":"WESLACO","latitude":26.1781,"longitude":-97.9708,"elevation_m":22.9},{"station_id":"USC00502785","station_name":"ELFIN_COVE","latitude":58.1917,"longitude":-136.3436,"elevation_m":6.1},{"station_id":"USC00336675","station_name":"PLATTSBURG","latitude":39.4167,"longitude":-83.1167,"elevation_m":344.4},{"station_id":"USC00354126","station_name":"IDLEYLD_PARK_4_NE","latitude":43.3708,"longitude":-122.9653,"elevation_m":329.2},{"station_id":"CA004075518","station_name":"NIPAWIN_A","latitude":53.3333,"longitude":-104.0,"elevation_m":372.0},{"station_id":"UKE00001861","station_name":"WYE","latitude":51.185,"longitude":0.9481,"elevation_m":56.0},{"station_id":"USC00360753","station_name":"BLOOMSBURG_NEAR","latitude":41.0733,"longitude":-76.4217,"elevation_m":185.9},{"station_id":"CA007043019","station_name":"HAVRE_ST_PIERRE","latitude":50.2833,"longitude":-63.6167,"elevation_m":38.0},{"station_id":"USC00195246","station_name":"NEW_BEDFORD","latitude":41.6333,"longitude":-70.9333,"elevation_m":21.3},{"station_id":"USC00455678","station_name":"MT_VERNON_3_WNW","latitude":48.4403,"longitude":-122.3867,"elevation_m":4.3},{"station_id":"LG000026227","station_name":"RUHNU","latitude":57.783,"longitude":23.25,"elevation_m":2.0},{"station_id":"UK000003614","station_name":"CILFYNYDD","latitude":51.633,"longitude":-3.3,"elevation_m":194.0},{"station_id":"USC00417044","station_name":"PINE_SPRINGS","latitude":31.8903,"longitude":-104.8078,"elevation_m":1704.1},{"station_id":"ASN00018011","station_name":"CEDUNA_POST_OFFICE","latitude":-32.1267,"longitude":133.6725,"elevation_m":10.0},{"station_id":"USC00483944","station_name":"GLENDO_RSVR_USBR","latitude":42.4689,"longitude":-104.9658,"elevation_m":1456.9},{"station_id":"USC00426534","station_name":"ORDERVILLE","latitude":37.2722,"longitude":-112.6389,"elevation_m":1664.2},{"station_id":"SFXLT235650","station_name":"TSHIVHASIE_TEA_VENDA","latitude":-22.97,"longitude":30.35,"elevation_m":976.0},{"station_id":"CA003026540","station_name":"TROCHU_TOWN","latitude":51.8333,"longitude":-113.2167,"elevation_m":876.0},{"station_id":"GLM00004390","station_name":"PRINS_CHRISTIAN","latitude":60.033,"longitude":-43.117,"elevation_m":19.0},{"station_id":"USW00013982","station_name":"CHILLICOTHE_RADIO_KCHI","latitude":39.8,"longitude":-93.55,"elevation_m":241.1},{"station_id":"ASN00058198","station_name":"BALLINA_AIRPORT_AWS","latitude":-28.8353,"longitude":153.5585,"elevation_m":1.3},{"station_id":"USC00354479","station_name":"KINZUA","latitude":45.0333,"longitude":-119.9167,"elevation_m":1051.9},{"station_id":"CA003031090","station_name":"CALGARY_GLENMORE_DAM","latitude":51.0167,"longitude":-114.1,"elevation_m":1067.0},{"station_id":"USC00365104","station_name":"LOCK_HAVEN","latitude":41.1333,"longitude":-77.4167,"elevation_m":167.9},{"station_id":"IN003050401","station_name":"NORTH_LAKHIMPUR","latitude":27.233,"longitude":94.117,"elevation_m":102.0},{"station_id":"USC00332044","station_name":"DANVILLE_2_W","latitude":40.4397,"longitude":-82.3039,"elevation_m":295.7},{"station_id":"CA008102201","station_name":"HARVEY_STATION","latitude":45.6667,"longitude":-67.0333,"elevation_m":183.0},{"station_id":"JA000047592","station_name":"ISHINOMAKI","latitude":38.433,"longitude":141.3,"elevation_m":43.0},{"station_id":"GMM00010418","station_name":"LUEDENSCHEID","latitude":51.25,"longitude":7.65,"elevation_m":392.0},{"station_id":"USC00249082","station_name":"WISE_RIVER_3_WNW","latitude":45.8031,"longitude":-113.0136,"elevation_m":1746.5},{"station_id":"IN004031400","station_name":"DARBHANGA","latitude":26.1667,"longitude":85.9,"elevation_m":47.0},{"station_id":"GMM00010193","station_name":"UECKERMUENDE_AUT","latitude":53.75,"longitude":14.067,"elevation_m":7.0},{"station_id":"USS0011D11S","station_name":"LOWER_TWIN","latitude":45.5,"longitude":-111.9167,"elevation_m":2407.9},{"station_id":"TUXLT856264","station_name":"CESME","latitude":38.3,"longitude":26.3,"elevation_m":5.0},{"station_id":"ASN00039059","station_name":"LADY_ELLIOT_ISLAND","latitude":-24.1116,"longitude":152.7161,"elevation_m":3.9},{"station_id":"NOE00109497","station_name":"SUOLOVUOPMI","latitude":69.5881,"longitude":23.5317,"elevation_m":377.0},{"station_id":"SLXLT353111","station_name":"FREETOWN","latitude":8.48,"longitude":-13.22,"elevation_m":68.0},{"station_id":"NON00055400","station_name":"MYKLEMYR","latitude":61.5245,"longitude":7.2762,"elevation_m":98.0},{"station_id":"USC00055797","station_name":"MT_EVANS_RSCH_STN","latitude":39.6561,"longitude":-105.5997,"elevation_m":3240.0},{"station_id":"CA0050309J6","station_name":"FISHER_BRANCH_AUT","latitude":51.0833,"longitude":-97.55,"elevation_m":253.0},{"station_id":"USC00151998","station_name":"CYNTHIANA","latitude":38.3769,"longitude":-84.3031,"elevation_m":213.4},{"station_id":"CA006064460","station_name":"LIVELY","latitude":46.4333,"longitude":-81.15,"elevation_m":282.0},{"station_id":"USC00023250","station_name":"FREDONIA","latitude":36.9414,"longitude":-112.5258,"elevation_m":1421.0},{"station_id":"USC00365479","station_name":"JIM_THORPE","latitude":40.8667,"longitude":-75.75,"elevation_m":253.0},{"station_id":"USC00356749","station_name":"PORTLAND_KGW_TV","latitude":45.5181,"longitude":-122.6894,"elevation_m":48.5},{"station_id":"USC00046399","station_name":"OJAI","latitude":34.4478,"longitude":-119.2275,"elevation_m":227.1},{"station_id":"USC00344249","station_name":"HOLLIS_5E","latitude":34.6808,"longitude":-99.8136,"elevation_m":494.1},{"station_id":"FIE00145747","station_name":"PUOLANKA_KK","latitude":64.8667,"longitude":27.7,"elevation_m":156.0},{"station_id":"USC00103143","station_name":"FENN_RS","latitude":46.0931,"longitude":-115.5356,"elevation_m":475.5},{"station_id":"NON00076500","station_name":"SKALVAR","latitude":65.8667,"longitude":12.1833,"elevation_m":6.0},{"station_id":"USC00349017","station_name":"TURPIN_4_SSE","latitude":36.8136,"longitude":-100.8636,"elevation_m":824.5},{"station_id":"CA003072536","station_name":"FAIRVIEW_FSA","latitude":56.0667,"longitude":-118.3833,"elevation_m":646.0},{"station_id":"USR0000OONI","station_name":"ONION_MOUNTAIN_LOOKOUT_OREGON","latitude":42.4544,"longitude":-123.615,"elevation_m":1352.7},{"station_id":"PLE00002032","station_name":"KALISZ","latitude":51.73,"longitude":18.0797,"elevation_m":140.0},{"station_id":"ASN00079023","station_name":"HORSHAM_POLKEMMET_RD","latitude":-36.6613,"longitude":142.0687,"elevation_m":128.0},{"station_id":"CA004021040","station_name":"CADILLAC","latitude":49.7167,"longitude":-107.75,"elevation_m":785.0},{"station_id":"SWE00135406","station_name":"VAXJO_KRONOBERG","latitude":56.93,"longitude":14.73,"elevation_m":182.0},{"station_id":"USC00454752","station_name":"LONG_BEACH_3_NNE","latitude":46.3833,"longitude":-124.0333,"elevation_m":9.1},{"station_id":"USC00137664","station_name":"SIBLEY","latitude":43.4047,"longitude":-95.7483,"elevation_m":466.0},{"station_id":"CA001105658","station_name":"N_VANC_GROUSE_MTN_RESORT","latitude":49.3667,"longitude":-123.0833,"elevation_m":1128.0},{"station_id":"IRM00040800","station_name":"ESFAHAN_SHAHID_BEHESHTI_INTL","latitude":32.751,"longitude":51.862,"elevation_m":1545.9},{"station_id":"COM00080210","station_name":"MATECANA","latitude":4.813,"longitude":-75.74,"elevation_m":1346.0},{"station_id":"USC00446955","station_name":"PULASKI_2_E","latitude":37.0556,"longitude":-80.7842,"elevation_m":563.9},{"station_id":"USC00224702","station_name":"KIPLING_4_NNW","latitude":32.7247,"longitude":-88.6631,"elevation_m":112.8},{"station_id":"ET000063471","station_name":"DIREDAWA","latitude":9.6,"longitude":41.85,"elevation_m":1260.0},{"station_id":"RSM00028573","station_name":"ISCHIM_AMSG","latitude":56.0994,"longitude":69.43,"elevation_m":81.0},{"station_id":"USR0000OCAI","station_name":"CALIMUS_OREGON","latitude":42.6314,"longitude":-121.5597,"elevation_m":2020.5},{"station_id":"ASN00033013","station_name":"COLLINSVILLE_POST_OFFICE","latitude":-20.5534,"longitude":147.8464,"elevation_m":196.0},{"station_id":"IN004051800","station_name":"GAYA","latitude":24.75,"longitude":84.95,"elevation_m":116.0},{"station_id":"USW00013705","station_name":"CAMP_SPRINGS_ANDREWS_AFB","latitude":38.8167,"longitude":-76.8667,"elevation_m":86.0},{"station_id":"BRM00082975","station_name":"BOM_JESUS_DO_PIAUI","latitude":-9.1,"longitude":-44.11,"elevation_m":331.7},{"station_id":"USC00288648","station_name":"SUSSEX_8_NNW","latitude":41.325,"longitude":-74.6447,"elevation_m":310.9},{"station_id":"FRM00007145","station_name":"TRAPPES","latitude":48.7667,"longitude":2.0167,"elevation_m":167.0},{"station_id":"USW00004237","station_name":"QUINAULT_4_NE","latitude":47.5139,"longitude":-123.812,"elevation_m":87.2},{"station_id":"USR0000IBUL","station_name":"BULL_SPRING_IDAHO","latitude":42.08,"longitude":-114.4847,"elevation_m":1737.4},{"station_id":"RSM00027509","station_name":"MOZAJSK","latitude":55.5,"longitude":36.0,"elevation_m":185.0},{"station_id":"USC00041731","station_name":"CHINA_FLAT","latitude":40.8667,"longitude":-123.5833,"elevation_m":182.9},{"station_id":"RSXLT973997","station_name":"PEVEK","latitude":69.7,"longitude":170.33,"elevation_m":4.0},{"station_id":"SFXLT431768","station_name":"MATROOSBERGHELPME","latitude":-33.43,"longitude":19.82,"elevation_m":967.0},{"station_id":"VEM00080472","station_name":"ARTURO_MICHELENA_INTL","latitude":10.15,"longitude":-67.928,"elevation_m":430.1},{"station_id":"USC00456039","station_name":"ODESSA","latitude":47.3328,"longitude":-118.6967,"elevation_m":470.0},{"station_id":"USC00203051","station_name":"GANGES","latitude":42.5833,"longitude":-86.2,"elevation_m":199.6},{"station_id":"USC00041214","station_name":"BURNEY","latitude":40.8803,"longitude":-121.6547,"elevation_m":974.8},{"station_id":"USC00410958","station_name":"BORGER","latitude":35.6364,"longitude":-101.4542,"elevation_m":934.8},{"station_id":"GMM00010439","station_name":"FRITZLAR","latitude":51.117,"longitude":9.283,"elevation_m":181.0},{"station_id":"SYM00040030","station_name":"HAMA","latitude":35.117,"longitude":36.75,"elevation_m":303.0},{"station_id":"LG000026436","station_name":"ZILANI","latitude":56.517,"longitude":25.917,"elevation_m":109.0},{"station_id":"RSE00149535","station_name":"KRASNOSLOBODSK","latitude":54.4,"longitude":43.8,"elevation_m":185.0},{"station_id":"SWE00137608","station_name":"KRISTIANSTAD_EVEROD","latitude":55.92,"longitude":14.08,"elevation_m":17.0},{"station_id":"ASN00039130","station_name":"NORTH_REEF_LIGHTHOUSE","latitude":-23.1833,"longitude":151.9,"elevation_m":1.0},{"station_id":"MXXLT138423","station_name":"SAN_BARTOLO_SAN_ANTO","latitude":23.71,"longitude":-109.88,"elevation_m":395.0},{"station_id":"DAM00006011","station_name":"TORSHAVN","latitude":62.017,"longitude":-6.767,"elevation_m":61.0},{"station_id":"USC00427064","station_name":"PROVO_BYU","latitude":40.2458,"longitude":-111.6508,"elevation_m":1392.9},{"station_id":"USC00305199","station_name":"MCKEEVER","latitude":43.6167,"longitude":-75.1167,"elevation_m":451.1},{"station_id":"USC00042506","station_name":"DOYLE_4_SSE","latitude":39.9717,"longitude":-120.0828,"elevation_m":1338.1},{"station_id":"USC00305540","station_name":"MOUNT_HOPE","latitude":40.9833,"longitude":-73.8667,"elevation_m":243.8},{"station_id":"CA008403040","station_name":"PORT_SAUNDERS","latitude":50.65,"longitude":-57.2,"elevation_m":91.0},{"station_id":"USC00364385","station_name":"JOHNSTOWN","latitude":40.3333,"longitude":-78.9167,"elevation_m":370.0},{"station_id":"CA002402684","station_name":"LONGSTAFF_BLUFF","latitude":68.9,"longitude":-75.1333,"elevation_m":161.0},{"station_id":"USC00057317","station_name":"RYE_1SW","latitude":37.9136,"longitude":-104.9483,"elevation_m":2176.6},{"station_id":"USW00053916","station_name":"CHILLICOTHE_AGRI_SCI","latitude":39.8233,"longitude":-93.5792,"elevation_m":234.4},{"station_id":"USR0000CSEC","station_name":"SECRET_TOWN_CALIFORNIA","latitude":39.1836,"longitude":-120.8847,"elevation_m":861.4},{"station_id":"MUM00041262","station_name":"FAHUD_AUT","latitude":22.35,"longitude":56.483,"elevation_m":170.0},{"station_id":"CA003010175","station_name":"ALLIANCE_SOUTH","latitude":52.4167,"longitude":-111.7833,"elevation_m":713.0},{"station_id":"USC00194502","station_name":"MARBLEHEAD","latitude":42.5008,"longitude":-70.8644,"elevation_m":25.6},{"station_id":"IRM00040893","station_name":"JASK","latitude":25.6333,"longitude":57.7667,"elevation_m":5.0},{"station_id":"ASN00009887","station_name":"MANDURAH","latitude":-32.5211,"longitude":115.75,"elevation_m":21.0},{"station_id":"RSM00027271","station_name":"SAR'JA","latitude":58.367,"longitude":45.533,"elevation_m":125.0},{"station_id":"USC00145906","station_name":"OBERLIN","latitude":39.8189,"longitude":-100.5342,"elevation_m":795.5},{"station_id":"USC00013251","station_name":"GENEVA_2","latitude":31.0383,"longitude":-85.8708,"elevation_m":44.2},{"station_id":"USC00128999","station_name":"VALPARAISO_WTR_WKS","latitude":41.5114,"longitude":-87.0378,"elevation_m":243.8},{"station_id":"CA006116702","station_name":"POWASSAN","latitude":46.1167,"longitude":-79.25,"elevation_m":274.0},{"station_id":"USR0000CDEM","station_name":"DEMAREE_COLORADO","latitude":39.46,"longitude":-108.88,"elevation_m":2181.5},{"station_id":"USC00025512","station_name":"MIAMI","latitude":33.4044,"longitude":-110.87,"elevation_m":1085.1},{"station_id":"CA001017098","station_name":"SATURNA_CAPMON","latitude":48.7833,"longitude":-123.1333,"elevation_m":178.0},{"station_id":"USC00056925","station_name":"RED_FEATHER_LAKES_2_SE","latitude":40.7833,"longitude":-105.55,"elevation_m":2488.7},{"station_id":"CA001012040","station_name":"COWICHAN_LAKE_FORESTRY","latitude":48.8167,"longitude":-124.1333,"elevation_m":177.0},{"station_id":"MUXLT440410","station_name":"MUSCAT","latitude":23.8,"longitude":58.6,"elevation_m":6.0},{"station_id":"USC00293969","station_name":"HICKMAN","latitude":34.5167,"longitude":-107.9333,"elevation_m":2379.0},{"station_id":"ASN00012044","station_name":"MUNGLINUP_WEST","latitude":-33.5547,"longitude":120.6997,"elevation_m":220.0},{"station_id":"RSM00027675","station_name":"PORETSKOYE","latitude":55.18,"longitude":46.33,"elevation_m":121.0},{"station_id":"USR0000CELI","station_name":"MOUNT_ELIZABETH_CALIFORNIA","latitude":38.0631,"longitude":-120.2469,"elevation_m":1503.6},{"station_id":"JA000047610","station_name":"NAGANO","latitude":36.667,"longitude":138.2,"elevation_m":419.0},{"station_id":"GME00004967","station_name":"DEGGENHAUSERTAL_AZENWEILER","latitude":47.8017,"longitude":9.4117,"elevation_m":708.0},{"station_id":"CMM00064961","station_name":"LOMIE","latitude":3.15,"longitude":13.62,"elevation_m":624.0},{"station_id":"USR0000CSLA","station_name":"SLATER_BUTTE_CALIFORNIA","latitude":41.8586,"longitude":-123.3525,"elevation_m":1423.4},{"station_id":"USC00253540","station_name":"HALSEY_2_W","latitude":41.9,"longitude":-100.3167,"elevation_m":824.5},{"station_id":"USC00353666","station_name":"HARPER","latitude":43.8667,"longitude":-117.6167,"elevation_m":766.0},{"station_id":"USC00222385","station_name":"D'LO_2_SW","latitude":31.9544,"longitude":-89.9328,"elevation_m":101.8},{"station_id":"USC00340394","station_name":"ATOKA_DAM","latitude":34.45,"longitude":-96.0667,"elevation_m":181.4},{"station_id":"TTXLT646231","station_name":"FAZENDA_ALGARVE","latitude":-8.7,"longitude":125.4,"elevation_m":918.0},{"station_id":"USC00231304","station_name":"CAPLINGER_MILLS","latitude":37.7947,"longitude":-93.8019,"elevation_m":252.1},{"station_id":"CA006075379","station_name":"MONTREAL_RIVER","latitude":47.1167,"longitude":-79.4833,"elevation_m":183.0},{"station_id":"USC00017020","station_name":"ROCKFORD_3_ESE","latitude":32.8711,"longitude":-86.1758,"elevation_m":182.9},{"station_id":"USC00361350","station_name":"CHALK_HILL_2_ENE","latitude":39.8447,"longitude":-79.5861,"elevation_m":603.5},{"station_id":"USS0015K03S","station_name":"DIAMOND_PEAK","latitude":39.5667,"longitude":-115.85,"elevation_m":2438.4},{"station_id":"USC00476200","station_name":"OCONOMOWOC","latitude":43.1003,"longitude":-88.5036,"elevation_m":260.9},{"station_id":"USC00435740","station_name":"NORTHFIELD_3_SSE","latitude":44.1,"longitude":-72.6167,"elevation_m":429.8},{"station_id":"HUXLT268923","station_name":"PECS","latitude":46.1,"longitude":18.2,"elevation_m":135.0},{"station_id":"EZM00011423","station_name":"PRIMDA","latitude":49.667,"longitude":12.683,"elevation_m":747.4},{"station_id":"BRM00082336","station_name":"ITACOATIARA","latitude":-3.127,"longitude":-58.481,"elevation_m":43.3},{"station_id":"USC00512679","station_name":"KAILUA_446","latitude":20.8906,"longitude":-156.2128,"elevation_m":213.4},{"station_id":"FIE00144522","station_name":"HALSUA_KANALA_PUROLA","latitude":63.4453,"longitude":24.4478,"elevation_m":153.0},{"station_id":"NZXLT884700","station_name":"RUAKURA","latitude":-37.8,"longitude":175.3,"elevation_m":null},{"station_id":"SWE00138848","station_name":"SANDHAMN","latitude":59.29,"longitude":18.92,"elevation_m":10.0},{"station_id":"USC00084771","station_name":"LAKE_HIAWASSEE","latitude":28.5333,"longitude":-81.4667,"elevation_m":36.9},{"station_id":"PLE00000207","station_name":"RZESZOW_JASIONKA","latitude":50.1167,"longitude":22.0331,"elevation_m":212.0},{"station_id":"RSM00023471","station_name":"NIZHNEVARTOVSK","latitude":60.917,"longitude":76.6,"elevation_m":55.0},{"station_id":"USC00027488","station_name":"SANDERS","latitude":35.2239,"longitude":-109.3222,"elevation_m":1784.0},{"station_id":"USC00093271","station_name":"EXPERIMENT","latitude":33.2631,"longitude":-84.2842,"elevation_m":284.7},{"station_id":"USC00091973","station_name":"CLAXTON","latitude":32.1678,"longitude":-81.9008,"elevation_m":57.3},{"station_id":"UKM00003862","station_name":"BOURNEMOUTH","latitude":50.78,"longitude":-1.843,"elevation_m":11.6},{"station_id":"RSM00024585","station_name":"UST_NERA","latitude":64.566,"longitude":143.2,"elevation_m":523.0},{"station_id":"USW00024025","station_name":"PIERRE_RGNL_AP","latitude":44.3814,"longitude":-100.2856,"elevation_m":531.0},{"station_id":"ASN00027015","station_name":"MORETON_TELEGRAPH_STATION","latitude":-12.4536,"longitude":142.6389,"elevation_m":40.0},{"station_id":"USW00093814","station_name":"CINCINNATI_NORTHERN_KY_AP","latitude":39.0431,"longitude":-84.6717,"elevation_m":264.9},{"station_id":"USC00404566","station_name":"JACKSON_2_SE","latitude":35.55,"longitude":-88.7833,"elevation_m":128.0},{"station_id":"CA003014995","station_name":"PARADISE_VALLEY","latitude":53.1167,"longitude":-110.35,"elevation_m":658.0},{"station_id":"FIE00141855","station_name":"JOMALA_JOMALABY","latitude":60.1781,"longitude":19.9894,"elevation_m":11.0},{"station_id":"UYXLT756228","station_name":"MONTEVIDEO","latitude":-34.85,"longitude":-56.2,"elevation_m":24.0},{"station_id":"USC00055116","station_name":"LONGMONT_2_ESE","latitude":40.1589,"longitude":-105.0736,"elevation_m":1508.8},{"station_id":"TIXLT092770","station_name":"HARAMKUL","latitude":38.58,"longitude":68.73,"elevation_m":2822.0},{"station_id":"CA008403506","station_name":"ST_JOHN'S_A","latitude":47.6167,"longitude":-52.75,"elevation_m":141.0},{"station_id":"USC00200779","station_name":"BIG_RAPIDS_WTR_WKS","latitude":43.7072,"longitude":-85.4822,"elevation_m":283.5},{"station_id":"CA005010761","station_name":"DELORAINE_2","latitude":49.1667,"longitude":-100.4,"elevation_m":533.0},{"station_id":"TS000060725","station_name":"JENDOUBA","latitude":36.48,"longitude":8.8,"elevation_m":143.0},{"station_id":"USC00200146","station_name":"ALMA","latitude":43.3864,"longitude":-84.6492,"elevation_m":224.0},{"station_id":"SWE00138146","station_name":"GODEBERG","latitude":57.57,"longitude":14.63,"elevation_m":350.0},{"station_id":"USC00518500","station_name":"PUU_MANAWAHUA_7256","latitude":21.3814,"longitude":-158.1197,"elevation_m":509.9},{"station_id":"USC00026242","station_name":"PARADISE","latitude":31.9353,"longitude":-109.2186,"elevation_m":1664.2},{"station_id":"CA00405DJDN","station_name":"LANGHAM_2W","latitude":52.3667,"longitude":-107.0167,"elevation_m":503.0},{"station_id":"JA000047747","station_name":"TAJIMA","latitude":35.5,"longitude":134.783,"elevation_m":183.0},{"station_id":"USR0000MZOR","station_name":"ZORTMAN_MINE_MONTANA","latitude":47.9225,"longitude":-108.5528,"elevation_m":1420.4},{"station_id":"CA007020860","station_name":"BROMPTONVILLE","latitude":45.4833,"longitude":-71.95,"elevation_m":130.0},{"station_id":"CDM00064708","station_name":"BOKORO_TD27BKR0","latitude":12.38,"longitude":17.04,"elevation_m":301.0},{"station_id":"USC00317079","station_name":"RALEIGH_STATE_UNIV","latitude":35.7944,"longitude":-78.6989,"elevation_m":121.9},{"station_id":"AGM00060421","station_name":"OUM_EL_BOUAGHI","latitude":35.867,"longitude":7.117,"elevation_m":891.0},{"station_id":"CA007070448","station_name":"BARRAGE_A_LAC_KEMPT","latitude":47.55,"longitude":-74.1833,"elevation_m":421.0},{"station_id":"MX000005045","station_name":"VILLA_JUAREZ","latitude":27.62,"longitude":-100.72,"elevation_m":305.0},{"station_id":"USW00003963","station_name":"JEFFERSON_CITY_MEM_AP","latitude":38.5911,"longitude":-92.1558,"elevation_m":174.7},{"station_id":"USW00053961","station_name":"MONROE_26_N","latitude":32.8833,"longitude":-92.1164,"elevation_m":26.8},{"station_id":"USC00508584","station_name":"SNETTISHAM_PWR_PLT","latitude":58.1422,"longitude":-133.7386,"elevation_m":8.8},{"station_id":"GME00004124","station_name":"FUCHSKAUTEN","latitude":50.66,"longitude":8.1033,"elevation_m":653.0},{"station_id":"USC00326620","station_name":"OAKES","latitude":46.1458,"longitude":-98.0919,"elevation_m":403.6},{"station_id":"USR0000OROB","station_name":"ROBERTS_BUTTE_OREGON","latitude":45.6817,"longitude":-117.2064,"elevation_m":1299.4},{"station_id":"USR0000TSOU","station_name":"SOUTHERN_ROUGH_TEXAS","latitude":30.5403,"longitude":-94.3411,"elevation_m":30.5},{"station_id":"USC00292757","station_name":"EICKS_RCH","latitude":31.4833,"longitude":-108.9333,"elevation_m":1617.0},{"station_id":"CA001103332","station_name":"HANEY_UBC_RF_ADMIN","latitude":49.2667,"longitude":-122.5667,"elevation_m":147.0},{"station_id":"IRM00040845","station_name":"KHARG","latitude":29.267,"longitude":50.267,"elevation_m":3.0},{"station_id":"USC00252820","station_name":"FAIRBURY_5S","latitude":40.0739,"longitude":-97.1669,"elevation_m":411.5},{"station_id":"CA008403098","station_name":"RODDICKTON","latitude":50.8667,"longitude":-56.1167,"elevation_m":12.0},{"station_id":"USC00011566","station_name":"CHATOM","latitude":31.4714,"longitude":-88.2503,"elevation_m":86.9},{"station_id":"USC00026119","station_name":"ORACLE_2_SE","latitude":32.6025,"longitude":-110.7344,"elevation_m":1374.6},{"station_id":"MX000010012","station_name":"CUENCAME","latitude":24.78,"longitude":-103.67,"elevation_m":1500.0},{"station_id":"USC00332976","station_name":"FREMONT_AG_STN","latitude":41.3119,"longitude":-83.1719,"elevation_m":202.4},{"station_id":"CA007020828","station_name":"BONSECOURS","latitude":45.4,"longitude":-72.2667,"elevation_m":297.0},{"station_id":"USR0000CWAL","station_name":"WALKER_PASS_CALIFORNIA","latitude":35.6647,"longitude":-118.0569,"elevation_m":1698.3},{"station_id":"USS0007J05S","station_name":"RIPPLE_CREEK","latitude":40.1167,"longitude":-107.3,"elevation_m":3151.6},{"station_id":"USC00363542","station_name":"GROVE_CITY","latitude":41.1536,"longitude":-80.0733,"elevation_m":411.5},{"station_id":"MXXLT844900","station_name":"VILLAFLORES_CHIAPAS","latitude":16.25,"longitude":-93.27,"elevation_m":610.0},{"station_id":"AOM00066140","station_name":"UIGECARMONA","latitude":-7.58,"longitude":15.0,"elevation_m":824.0},{"station_id":"RSM00037036","station_name":"NEVINNOMYSSK","latitude":44.633,"longitude":41.967,"elevation_m":343.0},{"station_id":"PKXLT335386","station_name":"MURREE","latitude":33.92,"longitude":73.38,"elevation_m":2127.0},{"station_id":"CA005041800","station_name":"MOOSEHORN","latitude":51.3,"longitude":-98.6167,"elevation_m":250.0},{"station_id":"USS0009J08S","station_name":"HICKERSON_PARK","latitude":40.9,"longitude":-109.9667,"elevation_m":2773.7},{"station_id":"UKXLT183707","station_name":"YORK","latitude":53.9,"longitude":-1.1,"elevation_m":null},{"station_id":"FIE00142015","station_name":"KEMIONSAARI_KEMIO_KK","latitude":60.1714,"longitude":22.7606,"elevation_m":13.0},{"station_id":"RSM00028445","station_name":"VERHNEE_DUBROVO","latitude":56.7,"longitude":61.1,"elevation_m":286.0},{"station_id":"USC00328812","station_name":"TROTTERS_3_SSE","latitude":47.2842,"longitude":-103.9006,"elevation_m":737.6},{"station_id":"CA001160899","station_name":"BLUE_RIVER_A","latitude":52.1333,"longitude":-119.2833,"elevation_m":683.0},{"station_id":"CA007081000","station_name":"CADILLAC","latitude":48.2167,"longitude":-78.3833,"elevation_m":321.0},{"station_id":"USC00398552","station_name":"VALE","latitude":44.6167,"longitude":-103.4,"elevation_m":844.9},{"station_id":"HUXLT797788","station_name":"MAGYAROVAR_HUNGARY","latitude":47.9,"longitude":17.3,"elevation_m":121.0},{"station_id":"CHM00056182","station_name":"SONGPAN","latitude":32.65,"longitude":103.567,"elevation_m":2852.0},{"station_id":"USC00257415","station_name":"RUSHVILLE","latitude":42.7547,"longitude":-102.4794,"elevation_m":1155.2},{"station_id":"BL000085230","station_name":"CHARANA","latitude":-17.58,"longitude":-69.6,"elevation_m":null},{"station_id":"USR0000CRAN","station_name":"RANGELY_COLORADO","latitude":40.1697,"longitude":-108.79,"elevation_m":1976.3},{"station_id":"USW00003032","station_name":"DRYDEN_TERRELL_CO_AP","latitude":30.0481,"longitude":-102.2131,"elevation_m":707.7},{"station_id":"FSM00061968","station_name":"ILES_GLORIEUSES","latitude":-11.583,"longitude":47.283,"elevation_m":4.0},{"station_id":"RSXLT052592","station_name":"VOLGODONSK","latitude":47.73,"longitude":42.25,"elevation_m":64.0},{"station_id":"USC00089401","station_name":"WAUCHULA","latitude":27.5478,"longitude":-81.7994,"elevation_m":18.3},{"station_id":"HUM00012960","station_name":"BAJA_CSAVOLYI_UT","latitude":46.1833,"longitude":19.0167,"elevation_m":112.0},{"station_id":"BRM00082193","station_name":"VAL_DE_CANS_INTL","latitude":-1.379,"longitude":-48.476,"elevation_m":16.5},{"station_id":"BOM00033105","station_name":"LELOIOV","latitude":51.783,"longitude":28.333,"elevation_m":141.0},{"station_id":"USC00312515","station_name":"DURHAM","latitude":36.0425,"longitude":-78.9625,"elevation_m":121.9},{"station_id":"USC00416664","station_name":"ORANGE","latitude":30.0858,"longitude":-93.7417,"elevation_m":3.0},{"station_id":"MYXLT951298","station_name":"KUALA_LIPIS","latitude":4.18,"longitude":102.05,"elevation_m":null},{"station_id":"USC00153241","station_name":"GLASGOW","latitude":36.9833,"longitude":-85.9,"elevation_m":207.3},{"station_id":"IDM00097570","station_name":"SERUI_YENDOSA","latitude":-1.867,"longitude":136.233,"elevation_m":3.0},